{"type":"FeatureCollection","features":[{"type":"Feature","geometry":{"type":"Point","coordinates":[5.2163330000000201,59.371233000000018]},"properties":{"loknr":10029,"navn":"TUHOLMANE Ø","status_lokalitet":"KLARERT","kapasitet_lok":2340,"kapasitet_unittype":"TN","plassering":"SJØ","vannmiljo":"SALTVANN","fylke":"ROGALAND","kommune":"KARMØY","lat":59.371233000000004,"lon":5.2163330000000006,"symbol":"Matfisk laks, ørret, regnbueørret","til_arter":"Laks, Regnbueørret, Ørret","til_produksjonsform":"Matfisk"}},{"type":"Feature","geometry":{"type":"Point","coordinates":[4.967550000000017,60.339882999999986]},"properties":{"loknr":10037,"navn":"GILJEHOLMEN","status_lokalitet":"KLARERT","kapasitet_lok":209,"kapasitet_unittype":"TN","plassering":"SJØ","vannmiljo":"SALTVANN","fylke":"VESTLAND","kommune":"ØYGARDEN","lat":60.339882999999993,"lon":4.9675500000000001,"symbol":"Bløtdyr, krepsdyr, pigghuder","til_arter":"Kamskjell","til_produksjonsform":"Akvakulturdyr til konsum"}},{"type":"Feature","geometry":{"type":"Point","coordinates":[5.1029330000000073,59.880650000000003]},"properties":{"loknr":10040,"navn":"SØRVIK","status_lokalitet":"KLARERT","kapasitet_lok":65,"kapasitet_unittype":"TN","plassering":"SJØ","vannmiljo":"SALTVANN","fylke":"VESTLAND","kommune":"FITJAR","lat":59.880650000000003,"lon":5.1029330000000002,"symbol":"Andre","til_arter":"Torsk","til_produksjonsform":"Matfisk"}},{"type":"Feature","geometry":{"type":"Point","coordinates":[5.0907330000000002,60.054317000000026]},"properties":{"loknr":10041,"navn":"KVIKSHOLMEN","status_lokalitet":"KLARERT","kapasitet_lok":2340,"kapasitet_unittype":"TN","plassering":"SJØ","vannmiljo":"SALTVANN","fylke":"VESTLAND","kommune":"AUSTEVOLL","lat":60.054316999999998,"lon":5.0907330000000002,"symbol":"Matfisk laks, ørret, regnbueørret","til_arter":"Laks, Regnbueørret, Ørret","til_produksjonsform":"Matfisk"}},{"type":"Feature","geometry":{"type":"Point","coordinates":[5.1361499999999864,59.862166999999999]},"properties":{"loknr":10044,"navn":"GODDOSEN","status_lokalitet":"KLARERT","kapasitet_lok":65,"kapasitet_unittype":"TN","plassering":"SJØ","vannmiljo":"SALTVANN","fylke":"VESTLAND","kommune":"BØMLO","lat":59.862166999999999,"lon":5.1361499999999998,"symbol":"Andre","til_arter":"Torsk","til_produksjonsform":"Matfisk"}},{"type":"Feature","geometry":{"type":"Point","coordinates":[5.120632999999998,60.088082999999983]},"properties":{"loknr":10045,"navn":"EIDHOLMEN","status_lokalitet":"KLARERT","kapasitet_lok":780,"kapasitet_unittype":"TN","plassering":"SJØ","vannmiljo":"SALTVANN","fylke":"VESTLAND","kommune":"AUSTEVOLL","lat":60.088082999999997,"lon":5.1206329999999998,"symbol":"Matfisk laks, ørret, regnbueørret","til_arter":"Laks, Regnbueørret, Ørret","til_produksjonsform":"Matfisk"}},{"type":"Feature","geometry":{"type":"Point","coordinates":[5.2281330000000139,59.866566999999975]},"properties":{"loknr":10050,"navn":"OSPØY Ø","status_lokalitet":"KLARERT","kapasitet_lok":1560,"kapasitet_unittype":"TN","plassering":"SJØ","vannmiljo":"SALTVANN","fylke":"VESTLAND","kommune":"BØMLO","lat":59.866567000000003,"lon":5.2281330000000006,"symbol":"Matfisk laks, ørret, regnbueørret","til_arter":"Laks, Regnbueørret, Ørret","til_produksjonsform":"Matfisk"}},{"type":"Feature","geometry":{"type":"Point","coordinates":[5.2493329999999787,59.831133000000023]},"properties":{"loknr":10052,"navn":"KLUBBEOSEN I","status_lokalitet":"KLARERT","kapasitet_lok":7,"kapasitet_unittype":"DA","plassering":"SJØ","vannmiljo":"SALTVANN","fylke":"VESTLAND","kommune":"BØMLO","lat":59.831133000000001,"lon":5.249333,"symbol":"Bløtdyr, krepsdyr, pigghuder","til_arter":"Østers","til_produksjonsform":"Akvakulturdyr til konsum"}},{"type":"Feature","geometry":{"type":"Point","coordinates":[5.3090829999999869,60.025582999999983]},"properties":{"loknr":10054,"navn":"TOBBEHOLMANE","status_lokalitet":"KLARERT","kapasitet_lok":3120,"kapasitet_unittype":"TN","plassering":"SJØ","vannmiljo":"SALTVANN","fylke":"VESTLAND","kommune":"AUSTEVOLL","lat":60.025582999999997,"lon":5.3090830000000002,"symbol":"Matfisk laks, ørret, regnbueørret","til_arter":"Laks, Regnbueørret, Ørret","til_produksjonsform":"Matfisk"}},{"type":"Feature","geometry":{"type":"Point","coordinates":[5.4457479999999805,59.511610000000019]},"properties":{"loknr":10060,"navn":"FJON","status_lokalitet":"KLARERT","kapasitet_lok":20000000,"kapasitet_unittype":"STK","plassering":"LAND","vannmiljo":"FERSKVANN","fylke":"VESTLAND","kommune":"SVEIO","lat":59.511610000000005,"lon":5.445748,"symbol":"Settefisk laks, ørret, regnbueørret","til_arter":"Laks, Regnbueørret, Ørret","til_produksjonsform":"Settefisk"}},{"type":"Feature","geometry":{"type":"Point","coordinates":[5.0440730000000258,60.56157300000001]},"properties":{"loknr":10076,"navn":"RYLANDSVÅG","status_lokalitet":"KLARERT","kapasitet_lok":11500000,"kapasitet_unittype":"STK","plassering":"LAND","vannmiljo":"FERSKVANN","fylke":"VESTLAND","kommune":"ALVER","lat":60.561573000000003,"lon":5.044073,"symbol":"Settefisk laks, ørret, regnbueørret","til_arter":"Laks, Regnbueørret, Ørret","til_produksjonsform":"Settefisk"}},{"type":"Feature","geometry":{"type":"Point","coordinates":[5.1330239999999776,60.445728999999972]},"properties":{"loknr":10077,"navn":"TVEITEVÅG","status_lokalitet":"KLARERT","kapasitet_lok":250,"kapasitet_unittype":"TN","plassering":"LAND","vannmiljo":"FERSKVANN/SALTVANN","fylke":"VESTLAND","kommune":"ASKØY","lat":60.445729,"lon":5.1330239999999998,"symbol":"Settefisk laks, ørret, regnbueørret","til_arter":"Laks, Regnbueørret, Ørret","til_produksjonsform":"Settefisk, Stamfisk"}},{"type":"Feature","geometry":{"type":"Point","coordinates":[5.3285829999999805,60.723416999999984]},"properties":{"loknr":10086,"navn":"REKEVIKI","status_lokalitet":"KLARERT","kapasitet_lok":3120,"kapasitet_unittype":"TN","plassering":"SJØ","vannmiljo":"SALTVANN","fylke":"VESTLAND","kommune":"ALVER","lat":60.723416999999998,"lon":5.3285830000000001,"symbol":"Matfisk laks, ørret, regnbueørret","til_arter":"Laks, Regnbueørret, Ørret","til_produksjonsform":"Matfisk"}},{"type":"Feature","geometry":{"type":"Point","coordinates":[4.7083329999999819,61.319999999999993]},"properties":{"loknr":10087,"navn":"KALVØYA N","status_lokalitet":"KLARERT","kapasitet_lok":1560,"kapasitet_unittype":"TN","plassering":"SJØ","vannmiljo":"SALTVANN","fylke":"VESTLAND","kommune":"ASKVOLL","lat":61.32,"lon":4.7083330000000005,"symbol":"Matfisk laks, ørret, regnbueørret","til_arter":"Laks, Regnbueørret, Ørret","til_produksjonsform":"Matfisk"}},{"type":"Feature","geometry":{"type":"Point","coordinates":[5.0246999999999957,61.490383000000008]},"properties":{"loknr":10091,"navn":"VÅGSØYA","status_lokalitet":"KLARERT","kapasitet_lok":1560,"kapasitet_unittype":"TN","plassering":"SJØ","vannmiljo":"SALTVANN","fylke":"VESTLAND","kommune":"KINN","lat":61.490382999999994,"lon":5.0247000000000002,"symbol":"Særtillatelser","til_arter":"Regnbueørret","til_produksjonsform":"Matfisk, Stamfisk"}},{"type":"Feature","geometry":{"type":"Point","coordinates":[5.8637830000000122,59.147400000000005]},"properties":{"loknr":10110,"navn":"DJUPEVIK","status_lokalitet":"KLARERT","kapasitet_lok":5460,"kapasitet_unittype":"TN","plassering":"SJØ","vannmiljo":"SALTVANN","fylke":"ROGALAND","kommune":"STAVANGER","lat":59.147399999999998,"lon":5.8637829999999997,"symbol":"Matfisk laks, ørret, regnbueørret","til_arter":"Laks, Regnbueørret, Ørret","til_produksjonsform":"Matfisk"}},{"type":"Feature","geometry":{"type":"Point","coordinates":[5.9344330000000127,59.12231700000001]},"properties":{"loknr":10113,"navn":"KOBBAVIKA","status_lokalitet":"KLARERT","kapasitet_lok":3600,"kapasitet_unittype":"TN","plassering":"SJØ","vannmiljo":"SALTVANN","fylke":"ROGALAND","kommune":"STAVANGER","lat":59.122317000000002,"lon":5.9344330000000003,"symbol":"Matfisk laks, ørret, regnbueørret","til_arter":"Laks, Regnbueørret, Ørret","til_produksjonsform":"Matfisk"}},{"type":"Feature","geometry":{"type":"Point","coordinates":[6.06708500000002,59.177481999999998]},"properties":{"loknr":10123,"navn":"FISTER","status_lokalitet":"KLARERT","kapasitet_lok":0,"kapasitet_unittype":"STK","plassering":"LAND","vannmiljo":"FERSKVANN","fylke":"ROGALAND","kommune":"HJELMELAND","lat":59.177481999999998,"lon":6.0670850000000005,"symbol":"Settefisk laks, ørret, regnbueørret","til_arter":"Laks, Regnbueørret, Ørret","til_produksjonsform":"Settefisk"}},{"type":"Feature","geometry":{"type":"Point","coordinates":[6.0975670000000264,59.215433000000019]},"properties":{"loknr":10126,"navn":"VASSVIK","status_lokalitet":"KLARERT","kapasitet_lok":1560,"kapasitet_unittype":"TN","plassering":"SJØ","vannmiljo":"SALTVANN","fylke":"ROGALAND","kommune":"HJELMELAND","lat":59.215433000000004,"lon":6.0975669999999997,"symbol":"Andre","til_arter":"Kveite","til_produksjonsform":"Matfisk"}},{"type":"Feature","geometry":{"type":"Point","coordinates":[6.184203000000025,58.838616000000002]},"properties":{"loknr":10131,"navn":"DIRDAL","status_lokalitet":"KLARERT","kapasitet_lok":600000,"kapasitet_unittype":"STK","plassering":"LAND","vannmiljo":"FERSKVANN/SALTVANN","fylke":"ROGALAND","kommune":"GJESDAL","lat":58.838616000000002,"lon":6.1842030000000001,"symbol":"Matfisk laks, ørret, regnbueørret","til_arter":"Breiflabb, Flekksteinbit, Gråsteinbit, Kveite, Laks, Piggvar, Regnbueørret, Reke av Penaeusslekten, Rødspette, Torsk, Tunge, Ørret","til_produksjonsform":"Akvakulturdyr til konsum, Matfisk, Settefisk"}},{"type":"Feature","geometry":{"type":"Point","coordinates":[5.6696830000000205,59.95335]},"properties":{"loknr":10136,"navn":"ONARØY","status_lokalitet":"KLARERT","kapasitet_lok":3900,"kapasitet_unittype":"TN","plassering":"SJØ","vannmiljo":"SALTVANN","fylke":"VESTLAND","kommune":"TYSNES","lat":59.95335,"lon":5.669683,"symbol":"Matfisk laks, ørret, regnbueørret","til_arter":"Laks, Regnbueørret, Ørret","til_produksjonsform":"Matfisk"}},{"type":"Feature","geometry":{"type":"Point","coordinates":[5.6591000000000236,60.264083000000028]},"properties":{"loknr":10137,"navn":"MATLAND","status_lokalitet":"KLARERT","kapasitet_lok":780,"kapasitet_unittype":"TN","plassering":"SJØ","vannmiljo":"SALTVANN","fylke":"VESTLAND","kommune":"BJØRNAFJORDEN","lat":60.264082999999999,"lon":5.6591000000000005,"symbol":"Stamfisk laks, ørret, regnbueørret","til_arter":"Butare, Fingertare, Grisetang, Havsalat, Laks, Sekkdyr, uspes., Stortare, Sukkertare (oppdrett), Søl","til_produksjonsform":"Akvakulturdyr til konsum, Alger til konsum, Stamfisk"}},{"type":"Feature","geometry":{"type":"Point","coordinates":[5.7638170000000173,60.189016999999978]},"properties":{"loknr":10141,"navn":"SÆVAREID","status_lokalitet":"KLARERT","kapasitet_lok":0,"kapasitet_unittype":"STK","plassering":"LAND","vannmiljo":"FERSKVANN","fylke":"VESTLAND","kommune":"BJØRNAFJORDEN","lat":60.189017,"lon":5.7638169999999995,"symbol":"Settefisk laks, ørret, regnbueørret","til_arter":"Laks, Regnbueørret, Ørret","til_produksjonsform":"Settefisk"}},{"type":"Feature","geometry":{"type":"Point","coordinates":[5.8730780000000209,60.226184999999987]},"properties":{"loknr":10145,"navn":"UTLEBØEN","status_lokalitet":"KLARERT","kapasitet_lok":15,"kapasitet_unittype":"TN","plassering":"LAND","vannmiljo":"FERSKVANN","fylke":"VESTLAND","kommune":"BJØRNAFJORDEN","lat":60.226185000000001,"lon":5.8730780000000005,"symbol":"Settefisk laks, ørret, regnbueørret","til_arter":"Laks, Regnbueørret, Ørret","til_produksjonsform":"Settefisk"}},{"type":"Feature","geometry":{"type":"Point","coordinates":[5.9806169999999952,59.747082999999975]},"properties":{"loknr":10147,"navn":"TUNGESVIK","status_lokalitet":"KLARERT","kapasitet_lok":1235,"kapasitet_unittype":"TN","plassering":"SJØ","vannmiljo":"SALTVANN","fylke":"VESTLAND","kommune":"ETNE","lat":59.747082999999996,"lon":5.9806169999999996,"symbol":"Stamfisk laks, ørret, regnbueørret","til_arter":"Laks","til_produksjonsform":"Stamfisk"}},{"type":"Feature","geometry":{"type":"Point","coordinates":[6.1761500000000069,59.790082999999981]},"properties":{"loknr":10149,"navn":"RAFDAL","status_lokalitet":"KLARERT","kapasitet_lok":1235,"kapasitet_unittype":"TN","plassering":"SJØ","vannmiljo":"SALTVANN","fylke":"VESTLAND","kommune":"ETNE","lat":59.790082999999996,"lon":6.1761499999999998,"symbol":"Stamfisk laks, ørret, regnbueørret","til_arter":"Laks","til_produksjonsform":"Stamfisk"}},{"type":"Feature","geometry":{"type":"Point","coordinates":[5.5863879999999995,60.874205000000018]},"properties":{"loknr":10156,"navn":"MATREDAL","status_lokalitet":"KLARERT","kapasitet_lok":400000,"kapasitet_unittype":"STK","plassering":"LAND","vannmiljo":"FERSKVANN/SALTVANN","fylke":"VESTLAND","kommune":"MASFJORDEN","lat":60.874205000000003,"lon":5.5863879999999995,"symbol":"Matfisk laks, ørret, regnbueørret","til_arter":"Akkar, Andre krepsdyr, Berggylt, Bergnebb, Blåskjell, Blåstål/Rødnebb, Breiflabb, Brisling, Brungylt, Drøbaksjøpiggsvin, Dypvannsreke, Flekksteinbit, Gapeflyndre, Glattulke, Gressgylt, Gråsteinbit, Grønngylt, Grønnsjøpiggsvin, Gyllen havkaruss, Havabbor, Havmus, Havål, Hestmakrell, Horned octopus *, Hummer, Hyse, Kamskjell uspes., Knurr, Kolmule, Kongekrabbe, Krinakrabbe, uspes., Kutling uspes., Kveite, Laks, Lodde, Lyr, Lysing, Makrell, Muddertrollkreps, Mulle, Piggvar, Polartorsk, Pukkellaks, Regnbueørret, Rognkjeks, Rødspette, Røye, Sebrafisk, Sei, Sik, Sild, Sjøpiggsvin uspes., Skrubbe, Slettvar, Smørflyndre, Snøkrabbe, Stillehavsøsters, Stingsild, Stør, Taskekrabbe, Torsk, Tunge, Uer uspes., Ål, Ørret, Østers, Øyepål","til_produksjonsform":"Akvakulturdyr i tidlige livsstadier, Matfisk, Settefisk"}},{"type":"Feature","geometry":{"type":"Point","coordinates":[6.1242500000000177,61.779717000000005]},"properties":{"loknr":10170,"navn":"SANDE","status_lokalitet":"KLARERT","kapasitet_lok":5000000,"kapasitet_unittype":"STK","plassering":"LAND","vannmiljo":"FERSKVANN","fylke":"VESTLAND","kommune":"GLOPPEN","lat":61.779716999999998,"lon":6.12425,"symbol":"Settefisk laks, ørret, regnbueørret","til_arter":"Laks, Regnbueørret, Ørret","til_produksjonsform":"Settefisk"}},{"type":"Feature","geometry":{"type":"Point","coordinates":[10.652649999999994,59.615783000000022]},"properties":{"loknr":10173,"navn":"SOLBERGSTRAND","status_lokalitet":"KLARERT","kapasitet_lok":7.5,"kapasitet_unittype":"TN","plassering":"LAND","vannmiljo":"FERSKVANN/SALTVANN","fylke":"AKERSHUS","kommune":"FROGN","lat":59.615782999999993,"lon":10.65265,"symbol":"Matfisk laks, ørret, regnbueørret","til_arter":"Athanas nitescens **, Bendelsleipe, Berggylt, Bergnebb, Bernakereremittkreps, Bleikgrønndusk, Blomsterreke, Blåskjell, Blåstål/Rødnebb, Blæretang, Breiflabb, Brisling, Brungylt, Bruntufs, Butt sandskjell, Buttstrandsnegl, Calanus hyperboreus **, Ceramium tenuicorne **, Chalky macoma *, Common shrimp *, Corophium volutator **, Drøbaksjøpiggsvin, Dverghummer, Dvergreke, Dvergsvømmekrabbe, Dvergtårnsnegl, Dvergulke, Dypvannsreke, Eikeving, Fagerdokke, Fallossekkdyr, Fjæreblod, Fjærerur, Fjæreskorpe, Flat periwinkle *, Gaffelgreinet havpryd, Gapeflyndre, Gitarpyntekrabbe, Greinet tarmgrønske, Gressgylt, Grisetang, Gråsteinbit, Grønngylt, Grønnsekkdyr, Grønnsjøpiggsvin, Gullskjell, Havabbor, Havmus, Havniøye, Havsalat, Havsil, Hestmakrell, Hummer, Hvitting, Hyse, Håreremittkreps, Idotea granulosa **, Idotea pelagica **, Jaera albifrons **, Kamskjell, Kamuflasjereke, Knippesli, Kolmule, Kongsnegl (Kongesnegl), Korallskjell, Krinakrabbe, uspes., Krusblekke, Krusflik, Kryptråd, Kuskjell, Kuskjelldokke, Kveite, Lacuna parva **, Laks, Lakselus, Laksesild, Lange, Langfingerkreps, Langfotkrabbe, Langpigget kråkebolle, Leirkutling, Liten kantnål, Lomre, Lusuer, Lyr, Lysing, Makrell, Marmorkrabbe, Microdeutopus gryllotalpa **, Muddertrollkreps, Nipigget stingsild, Norsk storkrill, Northern blu","til_produksjonsform":"Akvakulturdyr i tidlige livsstadier, Akvakulturdyr til konsum, Alger tidlig fase, Matfisk, Settefisk, Stamdyr, Stamfisk"}},{"type":"Feature","geometry":{"type":"Point","coordinates":[6.1607500000000073,62.520249999999976]},"properties":{"loknr":10181,"navn":"OKSEBÅSEN V","status_lokalitet":"KLARERT","kapasitet_lok":4680,"kapasitet_unittype":"TN","plassering":"SJØ","vannmiljo":"SALTVANN","fylke":"MØRE OG ROMSDAL","kommune":"GISKE","lat":62.520250000000004,"lon":6.1607500000000002,"symbol":"Matfisk laks, ørret, regnbueørret","til_arter":"Laks, Regnbueørret, Ørret","til_produksjonsform":"Matfisk"}},{"type":"Feature","geometry":{"type":"Point","coordinates":[6.2635169999999789,62.359983]},"properties":{"loknr":10183,"navn":"BARSTADVIK","status_lokalitet":"KLARERT","kapasitet_lok":780,"kapasitet_unittype":"TN","plassering":"LAND","vannmiljo":"SALTVANN","fylke":"MØRE OG ROMSDAL","kommune":"ØRSTA","lat":62.359983,"lon":6.2635169999999993,"symbol":"Settefisk laks, ørret, regnbueørret","til_arter":"Laks, Regnbueørret, Ørret","til_produksjonsform":"Settefisk, Stamfisk"}},{"type":"Feature","geometry":{"type":"Point","coordinates":[6.6622939999999744,62.626960999999994]},"properties":{"loknr":10191,"navn":"VESTREFJORDEN","status_lokalitet":"KLARERT","kapasitet_lok":0,"kapasitet_unittype":"STK","plassering":"LAND","vannmiljo":"FERSKVANN","fylke":"MØRE OG ROMSDAL","kommune":"HARAM","lat":62.626961000000001,"lon":6.6622940000000002,"symbol":"Settefisk laks, ørret, regnbueørret","til_arter":"Laks, Regnbueørret, Ørret","til_produksjonsform":"Settefisk"}},{"type":"Feature","geometry":{"type":"Point","coordinates":[6.7992830000000026,62.684550000000002]},"properties":{"loknr":10195,"navn":"FORNESET","status_lokalitet":"KLARERT","kapasitet_lok":65,"kapasitet_unittype":"TN","plassering":"LAND","vannmiljo":"SALTVANN","fylke":"MØRE OG ROMSDAL","kommune":"MOLDE","lat":62.684550000000002,"lon":6.799283,"symbol":"Andre","til_arter":"Kveite","til_produksjonsform":"Settefisk, Stamfisk"}},{"type":"Feature","geometry":{"type":"Point","coordinates":[7.5111670000000004,63.060099999999977]},"properties":{"loknr":10204,"navn":"HENDNESET","status_lokalitet":"KLARERT","kapasitet_lok":428.74000000000001,"kapasitet_unittype":"TN","plassering":"LAND","vannmiljo":"SALTVANN","fylke":"MØRE OG ROMSDAL","kommune":"AVERØY","lat":63.060099999999998,"lon":7.5111669999999995,"symbol":"Andre","til_arter":"Kveite","til_produksjonsform":"Matfisk"}},{"type":"Feature","geometry":{"type":"Point","coordinates":[7.9046000000000163,63.076782999999978]},"properties":{"loknr":10212,"navn":"BOGEN","status_lokalitet":"KLARERT","kapasitet_lok":6240,"kapasitet_unittype":"TN","plassering":"SJØ","vannmiljo":"SALTVANN","fylke":"MØRE OG ROMSDAL","kommune":"KRISTIANSUND","lat":63.076782999999999,"lon":7.9046000000000003,"symbol":"Matfisk laks, ørret, regnbueørret","til_arter":"Laks, Regnbueørret, Ørret","til_produksjonsform":"Matfisk"}},{"type":"Feature","geometry":{"type":"Point","coordinates":[8.0756000000000085,62.942400000000021]},"properties":{"loknr":10213,"navn":"NAUSTNESET","status_lokalitet":"KLARERT","kapasitet_lok":2340,"kapasitet_unittype":"TN","plassering":"SJØ","vannmiljo":"SALTVANN","fylke":"MØRE OG ROMSDAL","kommune":"GJEMNES","lat":62.942399999999999,"lon":8.0755999999999997,"symbol":"Matfisk laks, ørret, regnbueørret","til_arter":"Laks, Regnbueørret, Ørret","til_produksjonsform":"Matfisk, Stamfisk"}},{"type":"Feature","geometry":{"type":"Point","coordinates":[8.1917329999999993,63.076282999999989]},"properties":{"loknr":10216,"navn":"SKÅREN","status_lokalitet":"KLARERT","kapasitet_lok":3120,"kapasitet_unittype":"TN","plassering":"SJØ","vannmiljo":"SALTVANN","fylke":"TRØNDELAG","kommune":"HEIM","lat":63.076282999999997,"lon":8.191733000000001,"symbol":"Matfisk laks, ørret, regnbueørret","til_arter":"Laks, Regnbueørret, Ørret","til_produksjonsform":"Matfisk, Stamfisk"}},{"type":"Feature","geometry":{"type":"Point","coordinates":[8.6255970000000275,63.099226999999985]},"properties":{"loknr":10220,"navn":"BOTN","status_lokalitet":"KLARERT","kapasitet_lok":2500000,"kapasitet_unittype":"STK","plassering":"LAND","vannmiljo":"FERSKVANN","fylke":"TRØNDELAG","kommune":"HEIM","lat":63.099227000000006,"lon":8.6255970000000008,"symbol":"Settefisk laks, ørret, regnbueørret","til_arter":"Laks, Regnbueørret, Ørret","til_produksjonsform":"Settefisk"}},{"type":"Feature","geometry":{"type":"Point","coordinates":[7.9858330000000137,63.448617000000013]},"properties":{"loknr":10221,"navn":"AUNVÅGEN","status_lokalitet":"KLARERT","kapasitet_lok":900,"kapasitet_unittype":"TN","plassering":"LAND","vannmiljo":"FERSKVANN","fylke":"MØRE OG ROMSDAL","kommune":"SMØLA","lat":63.448616999999999,"lon":7.9858330000000004,"symbol":"Settefisk laks, ørret, regnbueørret","til_arter":"Laks, Regnbueørret, Ørret","til_produksjonsform":"Settefisk"}},{"type":"Feature","geometry":{"type":"Point","coordinates":[8.2135670000000118,63.398016999999982]},"properties":{"loknr":10223,"navn":"BREMNESSVAET","status_lokalitet":"KLARERT","kapasitet_lok":7020,"kapasitet_unittype":"TN","plassering":"SJØ","vannmiljo":"SALTVANN","fylke":"MØRE OG ROMSDAL","kommune":"SMØLA","lat":63.398017000000003,"lon":8.2135669999999994,"symbol":"Matfisk laks, ørret, regnbueørret","til_arter":"Laks, Regnbueørret, Ørret","til_produksjonsform":"Matfisk"}},{"type":"Feature","geometry":{"type":"Point","coordinates":[8.217550000000017,63.143399999999986]},"properties":{"loknr":10224,"navn":"KORSNESET","status_lokalitet":"KLARERT","kapasitet_lok":9360,"kapasitet_unittype":"TN","plassering":"SJØ","vannmiljo":"SALTVANN","fylke":"TRØNDELAG","kommune":"HEIM","lat":63.1434,"lon":8.2175499999999992,"symbol":"Matfisk laks, ørret, regnbueørret","til_arter":"Laks, Regnbueørret, Ørret","til_produksjonsform":"Matfisk"}},{"type":"Feature","geometry":{"type":"Point","coordinates":[8.4569500000000062,63.146016999999972]},"properties":{"loknr":10229,"navn":"FÆTTEN","status_lokalitet":"KLARERT","kapasitet_lok":4680,"kapasitet_unittype":"TN","plassering":"SJØ","vannmiljo":"SALTVANN","fylke":"TRØNDELAG","kommune":"HEIM","lat":63.146017000000001,"lon":8.4569499999999991,"symbol":"Matfisk laks, ørret, regnbueørret","til_arter":"Laks, Regnbueørret, Ørret","til_produksjonsform":"Matfisk"}},{"type":"Feature","geometry":{"type":"Point","coordinates":[8.5368669999999724,63.847050000000024]},"properties":{"loknr":10232,"navn":"MANNBRUHOLMEN","status_lokalitet":"KLARERT","kapasitet_lok":7020,"kapasitet_unittype":"TN","plassering":"SJØ","vannmiljo":"SALTVANN","fylke":"TRØNDELAG","kommune":"FRØYA","lat":63.847050000000003,"lon":8.5368669999999991,"symbol":"Matfisk laks, ørret, regnbueørret","til_arter":"Laks, Regnbueørret, Ørret","til_produksjonsform":"Matfisk"}},{"type":"Feature","geometry":{"type":"Point","coordinates":[8.8868699999999876,63.651974999999993]},"properties":{"loknr":10240,"navn":"ILSØYA Ø","status_lokalitet":"KLARERT","kapasitet_lok":1560,"kapasitet_unittype":"TN","plassering":"SJØ","vannmiljo":"SALTVANN","fylke":"TRØNDELAG","kommune":"HITRA","lat":63.651975,"lon":8.88687,"symbol":"Matfisk laks, ørret, regnbueørret","til_arter":"Laks, Regnbueørret, Ørret","til_produksjonsform":"Matfisk"}},{"type":"Feature","geometry":{"type":"Point","coordinates":[9.8619669999999928,63.862050000000011]},"properties":{"loknr":10246,"navn":"LEIKVANGBUKTA LAND","status_lokalitet":"KLARERT","kapasitet_lok":300,"kapasitet_unittype":"TN","plassering":"LAND","vannmiljo":"FERSKVANN/SALTVANN","fylke":"TRØNDELAG","kommune":"ØRLAND","lat":63.862050000000004,"lon":9.8619669999999999,"symbol":"Stamfisk laks, ørret, regnbueørret","til_arter":"Laks","til_produksjonsform":"Stamfisk"}},{"type":"Feature","geometry":{"type":"Point","coordinates":[10.004282999999987,63.898266999999976]},"properties":{"loknr":10247,"navn":"HOMMELVIKA","status_lokalitet":"KLARERT","kapasitet_lok":300,"kapasitet_unittype":"TN","plassering":"SJØ","vannmiljo":"SALTVANN","fylke":"TRØNDELAG","kommune":"ÅFJORD","lat":63.898267000000004,"lon":10.004283000000001,"symbol":"Bløtdyr, krepsdyr, pigghuder","til_arter":"Blåskjell","til_produksjonsform":"Akvakulturdyr til konsum"}},{"type":"Feature","geometry":{"type":"Point","coordinates":[10.085182999999972,63.954183]},"properties":{"loknr":10248,"navn":"EIDSKJÆRA NØ","status_lokalitet":"KLARERT","kapasitet_lok":60,"kapasitet_unittype":"DA","plassering":"SJØ","vannmiljo":"SALTVANN","fylke":"TRØNDELAG","kommune":"ÅFJORD","lat":63.954182999999993,"lon":10.085183000000001,"symbol":"Bløtdyr, krepsdyr, pigghuder","til_arter":"Blåskjell","til_produksjonsform":"Akvakulturdyr til konsum"}},{"type":"Feature","geometry":{"type":"Point","coordinates":[10.742700000000013,64.816800000000001]},"properties":{"loknr":10256,"navn":"BONDØYA","status_lokalitet":"KLARERT","kapasitet_lok":4680,"kapasitet_unittype":"TN","plassering":"SJØ","vannmiljo":"SALTVANN","fylke":"TRØNDELAG","kommune":"NÆRØYSUND","lat":64.816800000000001,"lon":10.742699999999999,"symbol":"Matfisk laks, ørret, regnbueørret","til_arter":"Laks, Regnbueørret, Ørret","til_produksjonsform":"Matfisk"}},{"type":"Feature","geometry":{"type":"Point","coordinates":[11.613900000000001,65.011450000000025]},"properties":{"loknr":10262,"navn":"LILLE KVITHOLMEN","status_lokalitet":"KLARERT","kapasitet_lok":4680,"kapasitet_unittype":"TN","plassering":"SJØ","vannmiljo":"SALTVANN","fylke":"TRØNDELAG","kommune":"NÆRØYSUND","lat":65.011449999999996,"lon":11.613899999999999,"symbol":"Matfisk laks, ørret, regnbueørret","til_arter":"Laks, Regnbueørret, Ørret","til_produksjonsform":"Matfisk"}},{"type":"Feature","geometry":{"type":"Point","coordinates":[12.436153999999988,64.884119999999996]},"properties":{"loknr":10265,"navn":"KONGSMOELVA","status_lokalitet":"KLARERT","kapasitet_lok":1500000,"kapasitet_unittype":"STK","plassering":"LAND","vannmiljo":"FERSKVANN","fylke":"TRØNDELAG","kommune":"HØYLANDET","lat":64.88412000000001,"lon":12.436154,"symbol":"Settefisk laks, ørret, regnbueørret","til_arter":"Laks, Regnbueørret, Ørret","til_produksjonsform":"Settefisk"}},{"type":"Feature","geometry":{"type":"Point","coordinates":[22.354199999999992,70.14145000000002]},"properties":{"loknr":10275,"navn":"AUSKARNES Ø","status_lokalitet":"KLARERT","kapasitet_lok":2700,"kapasitet_unittype":"TN","plassering":"SJØ","vannmiljo":"SALTVANN","fylke":"FINNMARK","kommune":"LOPPA","lat":70.141450000000006,"lon":22.354199999999999,"symbol":"Matfisk laks, ørret, regnbueørret","til_arter":"Laks, Regnbueørret, Ørret","til_produksjonsform":"Matfisk"}},{"type":"Feature","geometry":{"type":"Point","coordinates":[22.667050000000017,70.07733300000001]},"properties":{"loknr":10276,"navn":"SOMMARBUKT","status_lokalitet":"KLARERT","kapasitet_lok":2580,"kapasitet_unittype":"TN","plassering":"SJØ","vannmiljo":"SALTVANN","fylke":"FINNMARK","kommune":"ALTA","lat":70.077332999999996,"lon":22.667050000000003,"symbol":"Matfisk laks, ørret, regnbueørret","til_arter":"Laks, Regnbueørret, Ørret","til_produksjonsform":"Matfisk"}},{"type":"Feature","geometry":{"type":"Point","coordinates":[22.896517000000017,70.321117000000015]},"properties":{"loknr":10281,"navn":"STORE KVALFJORD","status_lokalitet":"KLARERT","kapasitet_lok":3600,"kapasitet_unittype":"TN","plassering":"SJØ","vannmiljo":"SALTVANN","fylke":"FINNMARK","kommune":"ALTA","lat":70.321117000000001,"lon":22.896516999999999,"symbol":"Matfisk laks, ørret, regnbueørret","til_arter":"Laks, Regnbueørret, Ørret","til_produksjonsform":"Matfisk"}},{"type":"Feature","geometry":{"type":"Point","coordinates":[5.0479330000000004,60.216949999999997]},"properties":{"loknr":10287,"navn":"KVERNAVIKA","status_lokalitet":"KLARERT","kapasitet_lok":0,"kapasitet_unittype":"STK","plassering":"LAND","vannmiljo":"FERSKVANN/SALTVANN","fylke":"VESTLAND","kommune":"ØYGARDEN","lat":60.216950000000004,"lon":5.0479330000000004,"symbol":"Settefisk laks, ørret, regnbueørret","til_arter":"Laks, Regnbueørret, Ørret","til_produksjonsform":"Settefisk"}},{"type":"Feature","geometry":{"type":"Point","coordinates":[5.1462000000000216,59.724150000000009]},"properties":{"loknr":10291,"navn":"HISKHOLMEN","status_lokalitet":"KLARERT","kapasitet_lok":2340,"kapasitet_unittype":"TN","plassering":"SJØ","vannmiljo":"SALTVANN","fylke":"VESTLAND","kommune":"BØMLO","lat":59.724150000000002,"lon":5.1462000000000003,"symbol":"Matfisk laks, ørret, regnbueørret","til_arter":"Laks, Regnbueørret, Ørret","til_produksjonsform":"Matfisk"}},{"type":"Feature","geometry":{"type":"Point","coordinates":[5.1554669999999874,59.713833000000022]},"properties":{"loknr":10292,"navn":"LYKLINGHOLMEN N","status_lokalitet":"KLARERT","kapasitet_lok":3120,"kapasitet_unittype":"TN","plassering":"SJØ","vannmiljo":"SALTVANN","fylke":"VESTLAND","kommune":"BØMLO","lat":59.713833000000001,"lon":5.1554669999999998,"symbol":"Matfisk laks, ørret, regnbueørret","til_arter":"Laks, Regnbueørret, Ørret","til_produksjonsform":"Matfisk"}},{"type":"Feature","geometry":{"type":"Point","coordinates":[5.244700000000023,59.866417000000013]},"properties":{"loknr":10298,"navn":"ÅLFORO","status_lokalitet":"KLARERT","kapasitet_lok":2700,"kapasitet_unittype":"TN","plassering":"SJØ","vannmiljo":"SALTVANN","fylke":"VESTLAND","kommune":"FITJAR","lat":59.866416999999998,"lon":5.2446999999999999,"symbol":"Matfisk laks, ørret, regnbueørret","til_arter":"Laks, Regnbueørret, Ørret","til_produksjonsform":"Matfisk"}},{"type":"Feature","geometry":{"type":"Point","coordinates":[5.311916999999994,59.608400000000017]},"properties":{"loknr":10300,"navn":"HILLERSVIK","status_lokalitet":"KLARERT","kapasitet_lok":2340,"kapasitet_unittype":"TN","plassering":"SJØ","vannmiljo":"SALTVANN","fylke":"VESTLAND","kommune":"SVEIO","lat":59.608400000000003,"lon":5.3119169999999993,"symbol":"Matfisk laks, ørret, regnbueørret","til_arter":"Laks, Regnbueørret, Ørret","til_produksjonsform":"Matfisk"}},{"type":"Feature","geometry":{"type":"Point","coordinates":[5.363632999999993,59.742982999999981]},"properties":{"loknr":10303,"navn":"NAPPEHOLMANE","status_lokalitet":"KLARERT","kapasitet_lok":2340,"kapasitet_unittype":"TN","plassering":"SJØ","vannmiljo":"SALTVANN","fylke":"VESTLAND","kommune":"BØMLO","lat":59.742982999999995,"lon":5.3636330000000001,"symbol":"Matfisk laks, ørret, regnbueørret","til_arter":"Laks, Regnbueørret, Ørret","til_produksjonsform":"Matfisk"}},{"type":"Feature","geometry":{"type":"Point","coordinates":[4.7012500000000159,61.004267000000027]},"properties":{"loknr":10305,"navn":"SVENESET","status_lokalitet":"KLARERT","kapasitet_lok":4,"kapasitet_unittype":"DA","plassering":"SJØ","vannmiljo":"SALTVANN","fylke":"VESTLAND","kommune":"SOLUND","lat":61.004266999999999,"lon":4.7012499999999999,"symbol":"Alger","til_arter":"Butare, Fingertare, Sukkertare (oppdrett), Søl","til_produksjonsform":"Alger tidlig fase, Alger til konsum"}},{"type":"Feature","geometry":{"type":"Point","coordinates":[4.9686669999999822,60.46773300000001]},"properties":{"loknr":10309,"navn":"SYRTANGEN","status_lokalitet":"KLARERT","kapasitet_lok":2340,"kapasitet_unittype":"TN","plassering":"SJØ","vannmiljo":"SALTVANN","fylke":"VESTLAND","kommune":"ØYGARDEN","lat":60.467733000000003,"lon":4.9686669999999999,"symbol":"Matfisk laks, ørret, regnbueørret","til_arter":"Laks, Regnbueørret, Ørret","til_produksjonsform":"Matfisk"}},{"type":"Feature","geometry":{"type":"Point","coordinates":[5.1938329999999837,61.20313299999998]},"properties":{"loknr":10311,"navn":"STORLIA","status_lokalitet":"KLARERT","kapasitet_lok":3120,"kapasitet_unittype":"TN","plassering":"SJØ","vannmiljo":"SALTVANN","fylke":"VESTLAND","kommune":"HYLLESTAD","lat":61.203133000000001,"lon":5.1938330000000006,"symbol":"Matfisk laks, ørret, regnbueørret","til_arter":"Laks, Regnbueørret, Ørret","til_produksjonsform":"Matfisk"}},{"type":"Feature","geometry":{"type":"Point","coordinates":[4.9793329999999969,61.316633000000024]},"properties":{"loknr":10317,"navn":"GARVIK","status_lokalitet":"KLARERT","kapasitet_lok":1560,"kapasitet_unittype":"TN","plassering":"SJØ","vannmiljo":"SALTVANN","fylke":"VESTLAND","kommune":"ASKVOLL","lat":61.316633000000003,"lon":4.9793330000000005,"symbol":"Matfisk laks, ørret, regnbueørret","til_arter":"Laks, Regnbueørret, Ørret","til_produksjonsform":"Matfisk"}},{"type":"Feature","geometry":{"type":"Point","coordinates":[5.0698830000000044,61.758016999999995]},"properties":{"loknr":10318,"navn":"GULESTØ","status_lokalitet":"KLARERT","kapasitet_lok":5460,"kapasitet_unittype":"TN","plassering":"SJØ","vannmiljo":"SALTVANN","fylke":"VESTLAND","kommune":"BREMANGER","lat":61.758017000000002,"lon":5.0698829999999999,"symbol":"Matfisk laks, ørret, regnbueørret","til_arter":"Laks, Regnbueørret, Ørret","til_produksjonsform":"Matfisk"}},{"type":"Feature","geometry":{"type":"Point","coordinates":[5.1368330000000242,61.585766999999976]},"properties":{"loknr":10319,"navn":"ÅLVORA","status_lokalitet":"KLARERT","kapasitet_lok":3120,"kapasitet_unittype":"TN","plassering":"SJØ","vannmiljo":"SALTVANN","fylke":"VESTLAND","kommune":"KINN","lat":61.585767000000004,"lon":5.1368330000000002,"symbol":"Matfisk laks, ørret, regnbueørret","til_arter":"Laks, Regnbueørret, Ørret","til_produksjonsform":"Matfisk"}},{"type":"Feature","geometry":{"type":"Point","coordinates":[5.6276829999999904,59.945949999999982]},"properties":{"loknr":10323,"navn":"ONARHEIM","status_lokalitet":"KLARERT","kapasitet_lok":150,"kapasitet_unittype":"TN","plassering":"LAND","vannmiljo":"FERSKVANN/SALTVANN","fylke":"VESTLAND","kommune":"TYSNES","lat":59.945950000000003,"lon":5.6276830000000002,"symbol":"Andre","til_arter":"Berggylt, Rognkjeks","til_produksjonsform":"Settefisk, Stamfisk"}},{"type":"Feature","geometry":{"type":"Point","coordinates":[5.641050000000007,60.223267000000021]},"properties":{"loknr":10324,"navn":"GJERDEVIKSFLUA","status_lokalitet":"KLARERT","kapasitet_lok":1560,"kapasitet_unittype":"TN","plassering":"SJØ","vannmiljo":"SALTVANN","fylke":"VESTLAND","kommune":"BJØRNAFJORDEN","lat":60.223267,"lon":5.6410499999999999,"symbol":"Matfisk laks, ørret, regnbueørret","til_arter":"Laks, Regnbueørret, Ørret","til_produksjonsform":"Matfisk, Stamfisk"}},{"type":"Feature","geometry":{"type":"Point","coordinates":[5.9069329999999809,60.141032999999993]},"properties":{"loknr":10328,"navn":"SAGVIK","status_lokalitet":"KLARERT","kapasitet_lok":2210,"kapasitet_unittype":"TN","plassering":"SJØ","vannmiljo":"SALTVANN","fylke":"VESTLAND","kommune":"KVAM","lat":60.141033,"lon":5.9069330000000004,"symbol":"Matfisk laks, ørret, regnbueørret","til_arter":"Laks, Regnbueørret, Ørret","til_produksjonsform":"Matfisk"}},{"type":"Feature","geometry":{"type":"Point","coordinates":[6.0447169999999915,60.112833000000023]},"properties":{"loknr":10331,"navn":"ÅKRE","status_lokalitet":"KLARERT","kapasitet_lok":3120,"kapasitet_unittype":"TN","plassering":"SJØ","vannmiljo":"SALTVANN","fylke":"VESTLAND","kommune":"KVINNHERAD","lat":60.112833000000002,"lon":6.0447169999999995,"symbol":"Matfisk laks, ørret, regnbueørret","til_arter":"Laks, Regnbueørret, Ørret","til_produksjonsform":"Matfisk"}},{"type":"Feature","geometry":{"type":"Point","coordinates":[6.0826329999999871,60.083300000000008]},"properties":{"loknr":10332,"navn":"TROMMO","status_lokalitet":"KLARERT","kapasitet_lok":3120,"kapasitet_unittype":"TN","plassering":"SJØ","vannmiljo":"SALTVANN","fylke":"VESTLAND","kommune":"KVINNHERAD","lat":60.083300000000001,"lon":6.0826330000000004,"symbol":"Matfisk laks, ørret, regnbueørret","til_arter":"Laks, Regnbueørret, Ørret","til_produksjonsform":"Matfisk"}},{"type":"Feature","geometry":{"type":"Point","coordinates":[6.5594939999999724,60.122871999999973]},"properties":{"loknr":10335,"navn":"TYSSEDAL","status_lokalitet":"KLARERT","kapasitet_lok":71.5,"kapasitet_unittype":"TN","plassering":"LAND","vannmiljo":"FERSKVANN","fylke":"VESTLAND","kommune":"ULLENSVANG","lat":60.122872000000001,"lon":6.5594939999999999,"symbol":"Matfisk laks, ørret, regnbueørret","til_arter":"Ørret","til_produksjonsform":"Matfisk"}},{"type":"Feature","geometry":{"type":"Point","coordinates":[6.3562499999999886,60.406717000000015]},"properties":{"loknr":10338,"navn":"DJUPEVIK","status_lokalitet":"KLARERT","kapasitet_lok":1849,"kapasitet_unittype":"TN","plassering":"SJØ","vannmiljo":"SALTVANN","fylke":"VESTLAND","kommune":"KVAM","lat":60.406717,"lon":6.3562500000000002,"symbol":"Matfisk laks, ørret, regnbueørret","til_arter":"Laks, Regnbueørret, Ørret","til_produksjonsform":"Matfisk"}},{"type":"Feature","geometry":{"type":"Point","coordinates":[10.757967000000008,59.66923300000002]},"properties":{"loknr":10362,"navn":"NMBU FISKELABORATORIET","status_lokalitet":"KLARERT","kapasitet_lok":1,"kapasitet_unittype":"TN","plassering":"LAND","vannmiljo":"FERSKVANN","fylke":"AKERSHUS","kommune":"ÅS","lat":59.669233000000006,"lon":10.757966999999999,"symbol":"Matfisk laks, ørret, regnbueørret","til_arter":"Laks, Nilmunnruger, Regnbueørret, Ørret","til_produksjonsform":"Matfisk"}},{"type":"Feature","geometry":{"type":"Point","coordinates":[9.3546170000000188,60.945299999999975]},"properties":{"loknr":10364,"navn":"NORAKER GÅRD","status_lokalitet":"KLARERT","kapasitet_lok":2000,"kapasitet_unittype":"M3","plassering":"LAND","vannmiljo":"FERSKVANN","fylke":"INNLANDET","kommune":"NORD-AURDAL","lat":60.945300000000003,"lon":9.3546169999999993,"symbol":"Matfisk laks, ørret, regnbueørret","til_arter":"Regnbueørret","til_produksjonsform":"Matfisk"}},{"type":"Feature","geometry":{"type":"Point","coordinates":[9.4092170000000124,63.589366999999982]},"properties":{"loknr":10375,"navn":"NORD LEKSA","status_lokalitet":"KLARERT","kapasitet_lok":7020,"kapasitet_unittype":"TN","plassering":"SJØ","vannmiljo":"SALTVANN","fylke":"TRØNDELAG","kommune":"ORKLAND","lat":63.589367000000003,"lon":9.4092169999999999,"symbol":"Matfisk laks, ørret, regnbueørret","til_arter":"Laks, Regnbueørret, Ørret","til_produksjonsform":"Matfisk"}},{"type":"Feature","geometry":{"type":"Point","coordinates":[9.9536170000000084,63.890620000000013]},"properties":{"loknr":10380,"navn":"OLDØYA N","status_lokalitet":"KLARERT","kapasitet_lok":60,"kapasitet_unittype":"DA","plassering":"SJØ","vannmiljo":"SALTVANN","fylke":"TRØNDELAG","kommune":"ØRLAND","lat":63.890619999999998,"lon":9.9536169999999995,"symbol":"Bløtdyr, krepsdyr, pigghuder","til_arter":"Blåskjell","til_produksjonsform":"Akvakulturdyr til konsum"}},{"type":"Feature","geometry":{"type":"Point","coordinates":[9.9942829999999958,63.48660000000001]},"properties":{"loknr":10381,"navn":"RØDBERG","status_lokalitet":"KLARERT","kapasitet_lok":150,"kapasitet_unittype":"TN","plassering":"LAND","vannmiljo":"SALTVANN","fylke":"TRØNDELAG","kommune":"Indre Fosen","lat":63.486600000000003,"lon":9.9942829999999994,"symbol":"Andre","til_arter":"Torsk","til_produksjonsform":"Settefisk"}},{"type":"Feature","geometry":{"type":"Point","coordinates":[10.196966999999972,63.930949999999996]},"properties":{"loknr":10382,"navn":"MØRIHOLMEN","status_lokalitet":"KLARERT","kapasitet_lok":220,"kapasitet_unittype":"DA","plassering":"SJØ","vannmiljo":"SALTVANN","fylke":"TRØNDELAG","kommune":"ÅFJORD","lat":63.930950000000003,"lon":10.196966999999999,"symbol":"Bløtdyr, krepsdyr, pigghuder","til_arter":"Blåskjell","til_produksjonsform":"Akvakulturdyr til konsum"}},{"type":"Feature","geometry":{"type":"Point","coordinates":[10.955643000000009,63.602464999999995]},"properties":{"loknr":10385,"navn":"HOPLA","status_lokalitet":"KLARERT","kapasitet_lok":2500000,"kapasitet_unittype":"STK","plassering":"LAND","vannmiljo":"FERSKVANN","fylke":"TRØNDELAG","kommune":"LEVANGER","lat":63.602465000000002,"lon":10.955643,"symbol":"Settefisk laks, ørret, regnbueørret","til_arter":"Laks, Regnbueørret, Ørret","til_produksjonsform":"Settefisk"}},{"type":"Feature","geometry":{"type":"Point","coordinates":[11.343050000000005,59.233983000000023]},"properties":{"loknr":10388,"navn":"NØSTERØD GÅRD","status_lokalitet":"KLARERT","kapasitet_lok":300,"kapasitet_unittype":"STK","plassering":"LAND","vannmiljo":"FERSKVANN","fylke":"ØSTFOLD","kommune":"HALDEN","lat":59.233982999999995,"lon":11.34305,"symbol":"Bløtdyr, krepsdyr, pigghuder","til_arter":"Edelkreps (ferskvann)","til_produksjonsform":"Akvakulturdyr til konsum"}},{"type":"Feature","geometry":{"type":"Point","coordinates":[10.11568299999999,64.093000000000018]},"properties":{"loknr":10398,"navn":"SEISKJÆRA","status_lokalitet":"KLARERT","kapasitet_lok":3120,"kapasitet_unittype":"TN","plassering":"SJØ","vannmiljo":"SALTVANN","fylke":"TRØNDELAG","kommune":"ÅFJORD","lat":64.093000000000004,"lon":10.115683000000001,"symbol":"Matfisk laks, ørret, regnbueørret","til_arter":"Laks, Regnbueørret, Ørret","til_produksjonsform":"Matfisk"}},{"type":"Feature","geometry":{"type":"Point","coordinates":[11.07765999999998,64.634066000000018]},"properties":{"loknr":10406,"navn":"ÅRVIKA","status_lokalitet":"KLARERT","kapasitet_lok":500000,"kapasitet_unittype":"STK","plassering":"LAND","vannmiljo":"FERSKVANN","fylke":"TRØNDELAG","kommune":"NAMSOS","lat":64.634066000000004,"lon":11.07766,"symbol":"Settefisk laks, ørret, regnbueørret","til_arter":"Laks, Regnbueørret, Ørret","til_produksjonsform":"Settefisk"}},{"type":"Feature","geometry":{"type":"Point","coordinates":[11.388867000000005,64.643867]},"properties":{"loknr":10409,"navn":"KJELNESET","status_lokalitet":"KLARERT","kapasitet_lok":5460,"kapasitet_unittype":"TN","plassering":"SJØ","vannmiljo":"SALTVANN","fylke":"TRØNDELAG","kommune":"NAMSOS","lat":64.643867,"lon":11.388866999999999,"symbol":"Matfisk laks, ørret, regnbueørret","til_arter":"Laks, Regnbueørret, Ørret","til_produksjonsform":"Matfisk"}},{"type":"Feature","geometry":{"type":"Point","coordinates":[11.440870000000018,64.773933]},"properties":{"loknr":10410,"navn":"HINDHOLMEN","status_lokalitet":"KLARERT","kapasitet_lok":975,"kapasitet_unittype":"TN","plassering":"SJØ","vannmiljo":"SALTVANN","fylke":"TRØNDELAG","kommune":"NÆRØYSUND","lat":64.773933,"lon":11.440869999999999,"symbol":"Særtillatelser","til_arter":"Laks, Regnbueørret, Rognkjeks, Ørret","til_produksjonsform":"Matfisk, Settefisk"}},{"type":"Feature","geometry":{"type":"Point","coordinates":[11.473250000000007,64.792599999999993]},"properties":{"loknr":10411,"navn":"HATTHOLMEN","status_lokalitet":"KLARERT","kapasitet_lok":45,"kapasitet_unittype":"DA","plassering":"SJØ","vannmiljo":"SALTVANN","fylke":"TRØNDELAG","kommune":"NÆRØYSUND","lat":64.792599999999993,"lon":11.47325,"symbol":"Bløtdyr, krepsdyr, pigghuder","til_arter":"Blåskjell","til_produksjonsform":"Akvakulturdyr til konsum"}},{"type":"Feature","geometry":{"type":"Point","coordinates":[11.627166999999986,64.615949999999998]},"properties":{"loknr":10412,"navn":"RØYKLIBOTN","status_lokalitet":"KLARERT","kapasitet_lok":5000000,"kapasitet_unittype":"STK","plassering":"LAND","vannmiljo":"FERSKVANN","fylke":"TRØNDELAG","kommune":"NAMSOS","lat":64.615949999999998,"lon":11.627167,"symbol":"Settefisk laks, ørret, regnbueørret","til_arter":"Laks, Regnbueørret, Ørret","til_produksjonsform":"Settefisk"}},{"type":"Feature","geometry":{"type":"Point","coordinates":[11.910450000000026,64.928283000000022]},"properties":{"loknr":10421,"navn":"STORVIKBUKTA","status_lokalitet":"KLARERT","kapasitet_lok":3120,"kapasitet_unittype":"TN","plassering":"SJØ","vannmiljo":"SALTVANN","fylke":"TRØNDELAG","kommune":"NÆRØYSUND","lat":64.928283000000008,"lon":11.910449999999999,"symbol":"Matfisk laks, ørret, regnbueørret","til_arter":"Laks, Regnbueørret, Ørret","til_produksjonsform":"Matfisk"}},{"type":"Feature","geometry":{"type":"Point","coordinates":[12.071982999999989,65.126582999999982]},"properties":{"loknr":10425,"navn":"HEGGVIKA","status_lokalitet":"KLARERT","kapasitet_lok":5080,"kapasitet_unittype":"TN","plassering":"SJØ","vannmiljo":"SALTVANN","fylke":"NORDLAND","kommune":"BINDAL","lat":65.126582999999997,"lon":12.071982999999999,"symbol":"Matfisk laks, ørret, regnbueørret","til_arter":"Laks, Regnbueørret, Ørret","til_produksjonsform":"Matfisk"}},{"type":"Feature","geometry":{"type":"Point","coordinates":[12.168732999999975,64.957049999999981]},"properties":{"loknr":10427,"navn":"KÅLÅSTRANDA","status_lokalitet":"KLARERT","kapasitet_lok":70,"kapasitet_unittype":"DA","plassering":"SJØ","vannmiljo":"SALTVANN","fylke":"TRØNDELAG","kommune":"NÆRØYSUND","lat":64.957049999999995,"lon":12.168733,"symbol":"Bløtdyr, krepsdyr, pigghuder","til_arter":"Blåskjell","til_produksjonsform":"Akvakulturdyr til konsum"}},{"type":"Feature","geometry":{"type":"Point","coordinates":[12.650016999999991,65.665282999999988]},"properties":{"loknr":10435,"navn":"STAKKVIKA","status_lokalitet":"KLARERT","kapasitet_lok":10,"kapasitet_unittype":"DA","plassering":"SJØ","vannmiljo":"SALTVANN","fylke":"NORDLAND","kommune":"VEVELSTAD","lat":65.665283000000002,"lon":12.650017,"symbol":"Bløtdyr, krepsdyr, pigghuder","til_arter":"Blåskjell","til_produksjonsform":"Akvakulturdyr til konsum"}},{"type":"Feature","geometry":{"type":"Point","coordinates":[12.668467000000021,65.688667000000009]},"properties":{"loknr":10436,"navn":"STORSTEINSVIKA","status_lokalitet":"KLARERT","kapasitet_lok":15,"kapasitet_unittype":"DA","plassering":"SJØ","vannmiljo":"SALTVANN","fylke":"NORDLAND","kommune":"VEVELSTAD","lat":65.688666999999995,"lon":12.668467,"symbol":"Bløtdyr, krepsdyr, pigghuder","til_arter":"Blåskjell","til_produksjonsform":"Akvakulturdyr til konsum"}},{"type":"Feature","geometry":{"type":"Point","coordinates":[12.287199999999984,65.85145]},"properties":{"loknr":10447,"navn":"MEFALDSKJÆRET","status_lokalitet":"KLARERT","kapasitet_lok":6240,"kapasitet_unittype":"TN","plassering":"SJØ","vannmiljo":"SALTVANN","fylke":"NORDLAND","kommune":"ALSTAHAUG","lat":65.85145,"lon":12.2872,"symbol":"Matfisk laks, ørret, regnbueørret","til_arter":"Laks, Regnbueørret, Ørret","til_produksjonsform":"Matfisk"}},{"type":"Feature","geometry":{"type":"Point","coordinates":[14.556849999999997,67.278117000000009]},"properties":{"loknr":10483,"navn":"MØRKVEDBUKTA","status_lokalitet":"KLARERT","kapasitet_lok":2000,"kapasitet_unittype":"M3","plassering":"LAND","vannmiljo":"FERSKVANN/SALTVANN","fylke":"NORDLAND","kommune":"BODØ","lat":67.278116999999995,"lon":14.556850000000001,"symbol":"Matfisk laks, ørret, regnbueørret","til_arter":"Berggylt, Bergnebb, Blåskjell, Blåstål/Rødnebb, Brosme, Brunpølse, Drøbaksjøpiggsvin, Dypvannsreke, Flekksteinbit, Gressgylt, Gråsteinbit, Grønngylt, Haneskjell, Hummer, Hyse, Kamskjell, Kongsnegl (Kongesnegl), Kveite, Laks, Lange, Nilmunnruger, O-skjell, Pigghå, Piggvar, Regnbueørret, Rognkjeks, Rødpølse, Rødspette, Røye, Sandflyndre, Sandskjell, Saueskjell uspes., Sebrafisk, Sei, Sild, Sjøkreps, Smørflyndre, Strandkrabbe, Svabergsjøpiggsvin, Taskekrabbe, Torsk, Trepigget stingsild, Uer (vanlig), Ørret, Østers","til_produksjonsform":"Akvakulturdyr til konsum, Matfisk"}},{"type":"Feature","geometry":{"type":"Point","coordinates":[14.735137000000009,67.313022999999987]},"properties":{"loknr":10484,"navn":"HOPEN","status_lokalitet":"KLARERT","kapasitet_lok":2500000,"kapasitet_unittype":"STK","plassering":"LAND","vannmiljo":"FERSKVANN","fylke":"NORDLAND","kommune":"BODØ","lat":67.313023000000001,"lon":14.735137,"symbol":"Settefisk laks, ørret, regnbueørret","til_arter":"Laks, Regnbueørret, Ørret","til_produksjonsform":"Settefisk"}},{"type":"Feature","geometry":{"type":"Point","coordinates":[13.774333000000013,68.123917000000006]},"properties":{"loknr":10492,"navn":"MEØYPOLLEN","status_lokalitet":"KLARERT","kapasitet_lok":0,"kapasitet_unittype":"STK","plassering":"LAND","vannmiljo":"SALTVANN","fylke":"NORDLAND","kommune":"VESTVÅGØY","lat":68.123917000000006,"lon":13.774333,"symbol":"Andre","til_arter":"Torsk","til_produksjonsform":"Settefisk"}},{"type":"Feature","geometry":{"type":"Point","coordinates":[14.276200000000017,68.247616999999991]},"properties":{"loknr":10496,"navn":"FRAMNES","status_lokalitet":"KLARERT","kapasitet_lok":0,"kapasitet_unittype":"STK","plassering":"LAND","vannmiljo":"FERSKVANN","fylke":"NORDLAND","kommune":"VÅGAN","lat":68.247617000000005,"lon":14.276199999999999,"symbol":"Settefisk laks, ørret, regnbueørret","til_arter":"Laks, Regnbueørret, Ørret","til_produksjonsform":"Settefisk"}},{"type":"Feature","geometry":{"type":"Point","coordinates":[14.893566000000021,67.736582999999996]},"properties":{"loknr":10503,"navn":"BOGEN","status_lokalitet":"KLARERT","kapasitet_lok":0,"kapasitet_unittype":"STK","plassering":"LAND","vannmiljo":"FERSKVANN","fylke":"NORDLAND","kommune":"STEIGEN","lat":67.73658300000001,"lon":14.893566,"symbol":"Stamfisk laks, ørret, regnbueørret","til_arter":"Laks","til_produksjonsform":"Stamfisk"}},{"type":"Feature","geometry":{"type":"Point","coordinates":[14.615299999999991,68.781932999999981]},"properties":{"loknr":10504,"navn":"VEDVIKA","status_lokalitet":"KLARERT","kapasitet_lok":1560,"kapasitet_unittype":"TN","plassering":"SJØ","vannmiljo":"SALTVANN","fylke":"NORDLAND","kommune":"BØ I NORDLAND","lat":68.781932999999995,"lon":14.6153,"symbol":"Matfisk laks, ørret, regnbueørret","til_arter":"Laks, Regnbueørret, Ørret","til_produksjonsform":"Matfisk"}},{"type":"Feature","geometry":{"type":"Point","coordinates":[14.707267000000002,68.583933000000002]},"properties":{"loknr":10505,"navn":"DRAGNES","status_lokalitet":"KLARERT","kapasitet_lok":3900,"kapasitet_unittype":"TN","plassering":"SJØ","vannmiljo":"SALTVANN","fylke":"NORDLAND","kommune":"HADSEL","lat":68.583933000000002,"lon":14.707267,"symbol":"Matfisk laks, ørret, regnbueørret","til_arter":"Laks, Regnbueørret, Ørret","til_produksjonsform":"Matfisk"}},{"type":"Feature","geometry":{"type":"Point","coordinates":[15.510749999999973,67.458683000000008]},"properties":{"loknr":10513,"navn":"NEDRE KVARV","status_lokalitet":"KLARERT","kapasitet_lok":5400,"kapasitet_unittype":"TN","plassering":"SJØ","vannmiljo":"SALTVANN","fylke":"NORDLAND","kommune":"SØRFOLD","lat":67.458683000000008,"lon":15.51075,"symbol":"Matfisk laks, ørret, regnbueørret","til_arter":"Laks, Regnbueørret, Ørret","til_produksjonsform":"Matfisk"}},{"type":"Feature","geometry":{"type":"Point","coordinates":[15.299550000000011,68.021299999999997]},"properties":{"loknr":10518,"navn":"HORSVÅGEN","status_lokalitet":"KLARERT","kapasitet_lok":2340,"kapasitet_unittype":"TN","plassering":"SJØ","vannmiljo":"SALTVANN","fylke":"NORDLAND","kommune":"HAMARØY","lat":68.021299999999997,"lon":15.29955,"symbol":"Matfisk laks, ørret, regnbueørret","til_arter":"Laks, Regnbueørret, Ørret","til_produksjonsform":"Matfisk"}},{"type":"Feature","geometry":{"type":"Point","coordinates":[15.333470999999975,68.565038000000015]},"properties":{"loknr":10529,"navn":"FISKEFJORD I","status_lokalitet":"KLARERT","kapasitet_lok":600,"kapasitet_unittype":"TN","plassering":"LAND","vannmiljo":"FERSKVANN","fylke":"NORDLAND","kommune":"HADSEL","lat":68.565038000000001,"lon":15.333470999999999,"symbol":"Andre","til_arter":"Røye","til_produksjonsform":"Settefisk"}},{"type":"Feature","geometry":{"type":"Point","coordinates":[16.481867000000022,69.031583000000012]},"properties":{"loknr":10536,"navn":"HØGHOLMEN","status_lokalitet":"KLARERT","kapasitet_lok":6615,"kapasitet_unittype":"TN","plassering":"SJØ","vannmiljo":"SALTVANN","fylke":"TROMS","kommune":"HARSTAD","lat":69.031582999999998,"lon":16.481867000000001,"symbol":"Matfisk laks, ørret, regnbueørret","til_arter":"Laks, Regnbueørret, Ørret","til_produksjonsform":"Matfisk"}},{"type":"Feature","geometry":{"type":"Point","coordinates":[17.015083000000004,69.187117000000001]},"properties":{"loknr":10544,"navn":"FLAKSTADVÅG","status_lokalitet":"KLARERT","kapasitet_lok":3600,"kapasitet_unittype":"TN","plassering":"SJØ","vannmiljo":"SALTVANN","fylke":"TROMS","kommune":"SENJA","lat":69.187117000000001,"lon":17.015083000000001,"symbol":"Matfisk laks, ørret, regnbueørret","til_arter":"Laks, Regnbueørret, Ørret","til_produksjonsform":"Matfisk"}},{"type":"Feature","geometry":{"type":"Point","coordinates":[17.309683000000007,68.728383000000008]},"properties":{"loknr":10550,"navn":"SKARDBERGVIKA","status_lokalitet":"KLARERT","kapasitet_lok":3120,"kapasitet_unittype":"TN","plassering":"SJØ","vannmiljo":"SALTVANN","fylke":"TROMS","kommune":"GRATANGEN","lat":68.728383000000008,"lon":17.309683,"symbol":"Matfisk laks, ørret, regnbueørret","til_arter":"Laks, Regnbueørret, Ørret","til_produksjonsform":"Matfisk"}},{"type":"Feature","geometry":{"type":"Point","coordinates":[17.487317000000019,68.896216999999979]},"properties":{"loknr":10552,"navn":"STORVIKA III","status_lokalitet":"KLARERT","kapasitet_lok":4500,"kapasitet_unittype":"TN","plassering":"SJØ","vannmiljo":"SALTVANN","fylke":"TROMS","kommune":"SALANGEN","lat":68.896216999999993,"lon":17.487317000000001,"symbol":"Matfisk laks, ørret, regnbueørret","til_arter":"Laks, Regnbueørret, Ørret","til_produksjonsform":"Matfisk"}},{"type":"Feature","geometry":{"type":"Point","coordinates":[18.925086000000022,69.865236999999979]},"properties":{"loknr":10560,"navn":"KÅRVIK","status_lokalitet":"KLARERT","kapasitet_lok":650,"kapasitet_unittype":"TN","plassering":"SJØ","vannmiljo":"SALTVANN","fylke":"TROMS","kommune":"TROMSØ","lat":69.865237000000008,"lon":18.925086,"symbol":"Særtillatelser","til_arter":"Laks, Regnbueørret, Ørret","til_produksjonsform":"Matfisk"}},{"type":"Feature","geometry":{"type":"Point","coordinates":[6.6438919999999939,58.270106999999996]},"properties":{"loknr":10581,"navn":"FJELLSÆ I","status_lokalitet":"KLARERT","kapasitet_lok":2500000,"kapasitet_unittype":"STK","plassering":"LAND","vannmiljo":"FERSKVANN","fylke":"AGDER","kommune":"FLEKKEFJORD","lat":58.270106999999996,"lon":6.6438920000000001,"symbol":"Settefisk laks, ørret, regnbueørret","til_arter":"Laks, Regnbueørret, Ørret","til_produksjonsform":"Settefisk"}},{"type":"Feature","geometry":{"type":"Point","coordinates":[12.473997999999995,65.425117]},"properties":{"loknr":10598,"navn":"LANGSKJÆRET Ø","status_lokalitet":"KLARERT","kapasitet_lok":10,"kapasitet_unittype":"DA","plassering":"SJØ","vannmiljo":"SALTVANN","fylke":"NORDLAND","kommune":"BRØNNØY","lat":65.425117,"lon":12.473998,"symbol":"Bløtdyr, krepsdyr, pigghuder","til_arter":"Blåskjell","til_produksjonsform":"Akvakulturdyr til konsum"}},{"type":"Feature","geometry":{"type":"Point","coordinates":[21.706082999999978,70.249916999999982]},"properties":{"loknr":10611,"navn":"MARØYA","status_lokalitet":"KLARERT","kapasitet_lok":7560,"kapasitet_unittype":"TN","plassering":"SJØ","vannmiljo":"SALTVANN","fylke":"FINNMARK","kommune":"LOPPA","lat":70.249916999999996,"lon":21.706083,"symbol":"Matfisk laks, ørret, regnbueørret","til_arter":"Laks, Regnbueørret, Ørret","til_produksjonsform":"Matfisk"}},{"type":"Feature","geometry":{"type":"Point","coordinates":[23.306217000000004,70.263016999999991]},"properties":{"loknr":10614,"navn":"KRÅKEVIK","status_lokalitet":"KLARERT","kapasitet_lok":4424,"kapasitet_unittype":"TN","plassering":"SJØ","vannmiljo":"SALTVANN","fylke":"FINNMARK","kommune":"ALTA","lat":70.263017000000005,"lon":23.306217,"symbol":"Matfisk laks, ørret, regnbueørret","til_arter":"Laks, Regnbueørret, Ørret","til_produksjonsform":"Matfisk"}},{"type":"Feature","geometry":{"type":"Point","coordinates":[23.397882999999979,70.573149999999998]},"properties":{"loknr":10616,"navn":"VINNALANDET","status_lokalitet":"KLARERT","kapasitet_lok":6180,"kapasitet_unittype":"TN","plassering":"SJØ","vannmiljo":"SALTVANN","fylke":"FINNMARK","kommune":"HAMMERFEST","lat":70.573149999999998,"lon":23.397883,"symbol":"Matfisk laks, ørret, regnbueørret","til_arter":"Laks, Regnbueørret, Ørret","til_produksjonsform":"Matfisk"}},{"type":"Feature","geometry":{"type":"Point","coordinates":[24.075566999999978,70.572533000000021]},"properties":{"loknr":10635,"navn":"TOKNEBUKTNESET","status_lokalitet":"KLARERT","kapasitet_lok":3600,"kapasitet_unittype":"TN","plassering":"SJØ","vannmiljo":"SALTVANN","fylke":"FINNMARK","kommune":"HAMMERFEST","lat":70.572533000000007,"lon":24.075567000000003,"symbol":"Matfisk laks, ørret, regnbueørret","til_arter":"Laks, Regnbueørret, Ørret","til_produksjonsform":"Matfisk"}},{"type":"Feature","geometry":{"type":"Point","coordinates":[25.636982999999987,70.75139999999999]},"properties":{"loknr":10652,"navn":"VEDBOTN","status_lokalitet":"KLARERT","kapasitet_lok":3600,"kapasitet_unittype":"TN","plassering":"SJØ","vannmiljo":"SALTVANN","fylke":"FINNMARK","kommune":"NORDKAPP","lat":70.751400000000004,"lon":25.636983000000001,"symbol":"Matfisk laks, ørret, regnbueørret","til_arter":"Laks, Regnbueørret, Ørret","til_produksjonsform":"Matfisk"}},{"type":"Feature","geometry":{"type":"Point","coordinates":[24.944717000000026,70.889183000000003]},"properties":{"loknr":10660,"navn":"SKINNSTAKKVIKA","status_lokalitet":"KLARERT","kapasitet_lok":4000,"kapasitet_unittype":"TN","plassering":"SJØ","vannmiljo":"SALTVANN","fylke":"FINNMARK","kommune":"MÅSØY","lat":70.889183000000003,"lon":24.944717000000001,"symbol":"Matfisk laks, ørret, regnbueørret","til_arter":"Laks, Regnbueørret, Ørret","til_produksjonsform":"Matfisk"}},{"type":"Feature","geometry":{"type":"Point","coordinates":[26.701999999999998,70.414499999999975]},"properties":{"loknr":10665,"navn":"ADAMSELV","status_lokalitet":"KLARERT","kapasitet_lok":0,"kapasitet_unittype":"TN","plassering":"LAND","vannmiljo":"FERSKVANN","fylke":"FINNMARK","kommune":"LEBESBY","lat":70.414500000000004,"lon":26.702000000000002,"symbol":"Settefisk laks, ørret, regnbueørret","til_arter":"Laks, Regnbueørret, Ørret","til_produksjonsform":"Settefisk"}},{"type":"Feature","geometry":{"type":"Point","coordinates":[20.717817000000025,69.81611700000002]},"properties":{"loknr":10724,"navn":"KLOKKSTEIN","status_lokalitet":"KLARERT","kapasitet_lok":3600,"kapasitet_unittype":"TN","plassering":"SJØ","vannmiljo":"SALTVANN","fylke":"TROMS","kommune":"NORDREISA","lat":69.816117000000006,"lon":20.717817,"symbol":"Matfisk laks, ørret, regnbueørret","til_arter":"Laks, Regnbueørret, Ørret","til_produksjonsform":"Matfisk"}},{"type":"Feature","geometry":{"type":"Point","coordinates":[20.713967000000025,69.860082999999975]},"properties":{"loknr":10726,"navn":"ULØYBUKT","status_lokalitet":"KLARERT","kapasitet_lok":3590,"kapasitet_unittype":"TN","plassering":"SJØ","vannmiljo":"SALTVANN","fylke":"TROMS","kommune":"SKJERVØY","lat":69.860083000000003,"lon":20.713967,"symbol":"Matfisk laks, ørret, regnbueørret","til_arter":"Laks, Regnbueørret, Ørret","til_produksjonsform":"Matfisk"}},{"type":"Feature","geometry":{"type":"Point","coordinates":[20.510432999999978,69.57835]},"properties":{"loknr":10734,"navn":"GOURTESJOUKA","status_lokalitet":"KLARERT","kapasitet_lok":3600,"kapasitet_unittype":"TN","plassering":"SJØ","vannmiljo":"SALTVANN","fylke":"TROMS","kommune":"GÁIVUOTNA - KÅFJORD - KAIVUONO","lat":69.57835,"lon":20.510432999999999,"symbol":"Matfisk laks, ørret, regnbueørret","til_arter":"Laks, Regnbueørret, Ørret","til_produksjonsform":"Matfisk"}},{"type":"Feature","geometry":{"type":"Point","coordinates":[20.31491699999998,69.663267000000019]},"properties":{"loknr":10735,"navn":"ÅRØYA","status_lokalitet":"KLARERT","kapasitet_lok":5400,"kapasitet_unittype":"TN","plassering":"SJØ","vannmiljo":"SALTVANN","fylke":"TROMS","kommune":"LYNGEN","lat":69.663267000000005,"lon":20.314917000000001,"symbol":"Matfisk laks, ørret, regnbueørret","til_arter":"Laks, Regnbueørret, Ørret","til_produksjonsform":"Matfisk, Stamfisk"}},{"type":"Feature","geometry":{"type":"Point","coordinates":[19.972466999999995,69.33828299999999]},"properties":{"loknr":10741,"navn":"STORELVA ELVEVOLLEN","status_lokalitet":"KLARERT","kapasitet_lok":2500000,"kapasitet_unittype":"STK","plassering":"LAND","vannmiljo":"FERSKVANN","fylke":"TROMS","kommune":"STORFJORD - OMASVUOTNA - OMASVUONO","lat":69.338283000000004,"lon":19.972467000000002,"symbol":"Settefisk laks, ørret, regnbueørret","til_arter":"Laks, Regnbueørret, Ørret","til_produksjonsform":"Settefisk"}},{"type":"Feature","geometry":{"type":"Point","coordinates":[19.587733000000014,69.951349999999991]},"properties":{"loknr":10747,"navn":"FUTNES","status_lokalitet":"KLARERT","kapasitet_lok":3600,"kapasitet_unittype":"TN","plassering":"SJØ","vannmiljo":"SALTVANN","fylke":"TROMS","kommune":"KARLSØY","lat":69.951350000000005,"lon":19.587733,"symbol":"Matfisk laks, ørret, regnbueørret","til_arter":"Laks, Regnbueørret, Ørret","til_produksjonsform":"Matfisk"}},{"type":"Feature","geometry":{"type":"Point","coordinates":[19.43508300000002,69.881849999999986]},"properties":{"loknr":10753,"navn":"STRANDMO","status_lokalitet":"KLARERT","kapasitet_lok":3600,"kapasitet_unittype":"TN","plassering":"SJØ","vannmiljo":"SALTVANN","fylke":"TROMS","kommune":"KARLSØY","lat":69.88185,"lon":19.435082999999999,"symbol":"Matfisk laks, ørret, regnbueørret","til_arter":"Laks, Regnbueørret, Ørret","til_produksjonsform":"Matfisk"}},{"type":"Feature","geometry":{"type":"Point","coordinates":[19.361467000000005,69.833016999999984]},"properties":{"loknr":10754,"navn":"GLIMBUKTA","status_lokalitet":"KLARERT","kapasitet_lok":2700,"kapasitet_unittype":"TN","plassering":"SJØ","vannmiljo":"SALTVANN","fylke":"TROMS","kommune":"KARLSØY","lat":69.833016999999998,"lon":19.361467000000001,"symbol":"Matfisk laks, ørret, regnbueørret","til_arter":"Laks, Regnbueørret, Ørret","til_produksjonsform":"Matfisk"}},{"type":"Feature","geometry":{"type":"Point","coordinates":[19.34106700000001,70.072200000000009]},"properties":{"loknr":10757,"navn":"DÅVØYA","status_lokalitet":"KLARERT","kapasitet_lok":7200,"kapasitet_unittype":"TN","plassering":"SJØ","vannmiljo":"SALTVANN","fylke":"TROMS","kommune":"KARLSØY","lat":70.072199999999995,"lon":19.341067000000002,"symbol":"Matfisk laks, ørret, regnbueørret","til_arter":"Laks, Regnbueørret, Ørret","til_produksjonsform":"Matfisk"}},{"type":"Feature","geometry":{"type":"Point","coordinates":[19.304867000000002,70.06635]},"properties":{"loknr":10759,"navn":"KARANES","status_lokalitet":"KLARERT","kapasitet_lok":5400,"kapasitet_unittype":"TN","plassering":"SJØ","vannmiljo":"SALTVANN","fylke":"TROMS","kommune":"KARLSØY","lat":70.06635,"lon":19.304867000000002,"symbol":"Matfisk laks, ørret, regnbueørret","til_arter":"Laks, Regnbueørret, Ørret","til_produksjonsform":"Matfisk"}},{"type":"Feature","geometry":{"type":"Point","coordinates":[19.032050000000027,69.755116999999984]},"properties":{"loknr":10764,"navn":"KRAKNES","status_lokalitet":"KLARERT","kapasitet_lok":50,"kapasitet_unittype":"TN","plassering":"LAND","vannmiljo":"SALTVANN","fylke":"TROMS","kommune":"TROMSØ","lat":69.755116999999998,"lon":19.032050000000002,"symbol":"Matfisk laks, ørret, regnbueørret","til_arter":"Acartia clausi **, Acartia longiremis **, Andre krepsdyr, Anemoneeremittkreps, Annen røye, Ansjos, Apherusa glacialis **, Arctic sea ice amphipod*, Arktisk knurrulke, Berggylt, Bergnebb, Bernakereremittkreps, Blomsterreke, Blåkveite, Blåskjell, Blåstål/Rødnebb, Breiflabb, Brisling, Brosme, Brungylt, Butare, Butt sandskjell, Calanus glacialis **, Calanus helgolandicus **, Calanus hyperboreus **, Chalky macoma *, Common shrimp *, Drøbaksjøpiggsvin, Dvergreke, Dvergsvømmekrabbe, Dvergulke, Dypvannsreke, Eurytemora spp **, Eusirus holmii **, Flekksteinbit, Gammarus setosus **, Gapeflyndre, Gitarpyntekrabbe, Glattulke, Gressgylt, Gråsteinbit, Grønlandsskjell, Grønngylt, Gullskjell, Hairy cockle *, Haneskjell, Havabbor, Havål, Hestmakrell, Hyse, Kamskjell, Kamuflasjereke, Knivskjell, Kolmule, Kongekrabbe, Krill uspes., Krokulke, Kuskjell, Kveite, Laks, Laksesild, Lange, Langfotkrabbe, Leirkutling, Lodde, Lomre, Lyr, Lysing, Makrell, Makrellstørje, Marmorkrabbe, Metridia longa **, Muddertrollkreps, Nipigget stingsild, Nordlig knurrulke, Nordlig lysprikkfisk, O-skjell, Oithona similis **, Onisimus glacialis **, Onisimus litoralis**, Paddetorsk, Paraeuchaeta barbata **, Piggkorstroll, Piggsolstjerne, Piggvar, Polartorsk, Porselenskrabbe, Pseudocalanus acuspes **, Pseudocalanus minutus **,","til_produksjonsform":"Alger tidlig fase, Matfisk, Settefisk, Stamdyr"}},{"type":"Feature","geometry":{"type":"Point","coordinates":[18.971339,69.682749999999999]},"properties":{"loknr":10765,"navn":"NFH BYGG","status_lokalitet":"KLARERT","kapasitet_lok":875,"kapasitet_unittype":"KG","plassering":"LAND","vannmiljo":"SALTVANN","fylke":"TROMS","kommune":"TROMSØ","lat":69.682749999999999,"lon":18.971339,"symbol":"Særtillatelser","til_arter":"Laks, Regnbueørret, Ørret","til_produksjonsform":"Matfisk"}},{"type":"Feature","geometry":{"type":"Point","coordinates":[18.931033000000014,69.868083000000013]},"properties":{"loknr":10767,"navn":"INDRE KÅRVIK LAND","status_lokalitet":"KLARERT","kapasitet_lok":45,"kapasitet_unittype":"TN","plassering":"LAND","vannmiljo":"FERSKVANN/SALTVANN","fylke":"TROMS","kommune":"TROMSØ","lat":69.868082999999999,"lon":18.931032999999999,"symbol":"Matfisk laks, ørret, regnbueørret","til_arter":"Acartia longiremis **, Akkar, Albusnegl, Andre grønnalger, Andre krepsdyr, Andre rødalger, Annen krabbe, Annen snegl, Berggylt, Bergnebb, Blåkveite, Blåskjell, Blåstål/Rødnebb, Breiflabb, Brosme, Brungylt, Brunpølse, Butare, Butt sandskjell, Calanus glacialis **, Calanus hyperboreus **, Drøbaksjøpiggsvin, Dypvannsreke, Fingertare, Flekksteinbit, Gressgylt, Gråsteinbit, Grønngylt, Haneskjell, Havsalat, Hyse, Kamskjell, Kongekrabbe, Kongsnegl (Kongesnegl), Kveite, Laks, Lodde, Lomre, Metridia longa **, Norsk storkrill, O-skjell, Oithona similis **, Pigghå, Piggvar, Polartorsk, Porphyra dioica **, Pseudocalanus acuspes **, Pseudocalanus minutus **, Pseudocalanus moultoni **, Pukkellaks, Purpursnegl, Raudåte, Regnbueørret, Rognkjeks, Rysjegrønske, Rødpølse, Rødspette, Røye, Sandsjømus, Sei, Sik, Sild, Sjøkreps, Snøkrabbe, Storstrandsnegl, Strandkrabbe, Sukkertare (oppdrett), Svabergsjøpiggsvin, Søl, Tarmgrønske, Taskekrabbe, Torsk, Trollkrabbe, Tunge, Vanlig fjærehinne, Vanlig korstroll, Vanlig ulke, Ål, Ørret","til_produksjonsform":"Akvakulturdyr i tidlige livsstadier, Alger tidlig fase, Matfisk, Settefisk, Stamdyr, Stamfisk"}},{"type":"Feature","geometry":{"type":"Point","coordinates":[18.918566999999996,69.867399999999975]},"properties":{"loknr":10768,"navn":"INDRE KÅRVIK I","status_lokalitet":"KLARERT","kapasitet_lok":650,"kapasitet_unittype":"TN","plassering":"SJØ","vannmiljo":"SALTVANN","fylke":"TROMS","kommune":"TROMSØ","lat":69.867400000000004,"lon":18.918567000000003,"symbol":"Matfisk laks, ørret, regnbueørret","til_arter":"Flekksteinbit, Kveite, Laks, Piggvar, Regnbueørret, Røye, Torsk, Tunge, Ørret","til_produksjonsform":"Matfisk"}},{"type":"Feature","geometry":{"type":"Point","coordinates":[18.924820000000011,69.867926000000011]},"properties":{"loknr":10769,"navn":"INDRE KÅRVIK II","status_lokalitet":"KLARERT","kapasitet_lok":325,"kapasitet_unittype":"TN","plassering":"SJØ","vannmiljo":"SALTVANN","fylke":"TROMS","kommune":"TROMSØ","lat":69.867926000000011,"lon":18.92482,"symbol":"Andre","til_arter":"Flekksteinbit, Kveite, Piggvar, Røye, Torsk, Tunge","til_produksjonsform":"Matfisk"}},{"type":"Feature","geometry":{"type":"Point","coordinates":[23.465883000000019,70.287500000000023]},"properties":{"loknr":10789,"navn":"STORE LERRESFJORD","status_lokalitet":"KLARERT","kapasitet_lok":4425,"kapasitet_unittype":"TN","plassering":"SJØ","vannmiljo":"SALTVANN","fylke":"FINNMARK","kommune":"ALTA","lat":70.287499999999994,"lon":23.465883000000002,"symbol":"Matfisk laks, ørret, regnbueørret","til_arter":"Laks, Regnbueørret, Ørret","til_produksjonsform":"Matfisk"}},{"type":"Feature","geometry":{"type":"Point","coordinates":[23.484532999999999,70.384032999999988]},"properties":{"loknr":10790,"navn":"OLDERFJORD","status_lokalitet":"KLARERT","kapasitet_lok":5670,"kapasitet_unittype":"TN","plassering":"SJØ","vannmiljo":"SALTVANN","fylke":"FINNMARK","kommune":"HAMMERFEST","lat":70.384033000000002,"lon":23.484532999999999,"symbol":"Matfisk laks, ørret, regnbueørret","til_arter":"Laks, Regnbueørret, Ørret","til_produksjonsform":"Matfisk"}},{"type":"Feature","geometry":{"type":"Point","coordinates":[23.400283000000002,70.286366999999984]},"properties":{"loknr":10791,"navn":"NORDNES","status_lokalitet":"KLARERT","kapasitet_lok":3480,"kapasitet_unittype":"TN","plassering":"SJØ","vannmiljo":"SALTVANN","fylke":"FINNMARK","kommune":"ALTA","lat":70.286366999999998,"lon":23.400283000000002,"symbol":"Matfisk laks, ørret, regnbueørret","til_arter":"Laks, Regnbueørret, Ørret","til_produksjonsform":"Matfisk"}},{"type":"Feature","geometry":{"type":"Point","coordinates":[23.223833000000013,70.124216999999987]},"properties":{"loknr":10794,"navn":"MORTENSNES","status_lokalitet":"KLARERT","kapasitet_lok":5400,"kapasitet_unittype":"TN","plassering":"SJØ","vannmiljo":"SALTVANN","fylke":"FINNMARK","kommune":"ALTA","lat":70.124217000000002,"lon":23.223832999999999,"symbol":"Matfisk laks, ørret, regnbueørret","til_arter":"Laks, Regnbueørret, Ørret","til_produksjonsform":"Matfisk"}},{"type":"Feature","geometry":{"type":"Point","coordinates":[22.278500000000008,70.212199999999996]},"properties":{"loknr":10795,"navn":"OLANESET","status_lokalitet":"KLARERT","kapasitet_lok":3600,"kapasitet_unittype":"TN","plassering":"SJØ","vannmiljo":"SALTVANN","fylke":"FINNMARK","kommune":"LOPPA","lat":70.212199999999996,"lon":22.278500000000001,"symbol":"Matfisk laks, ørret, regnbueørret","til_arter":"Laks, Regnbueørret, Ørret","til_produksjonsform":"Matfisk"}},{"type":"Feature","geometry":{"type":"Point","coordinates":[21.811016999999993,70.199450000000013]},"properties":{"loknr":10796,"navn":"HUNDBERGAN","status_lokalitet":"KLARERT","kapasitet_lok":3480,"kapasitet_unittype":"TN","plassering":"SJØ","vannmiljo":"SALTVANN","fylke":"FINNMARK","kommune":"LOPPA","lat":70.199449999999999,"lon":21.811017,"symbol":"Matfisk laks, ørret, regnbueørret","til_arter":"Laks, Regnbueørret, Ørret","til_produksjonsform":"Matfisk"}},{"type":"Feature","geometry":{"type":"Point","coordinates":[21.875166999999976,69.904133000000002]},"properties":{"loknr":10803,"navn":"FJELLBUKT","status_lokalitet":"KLARERT","kapasitet_lok":5400,"kapasitet_unittype":"TN","plassering":"SJØ","vannmiljo":"SALTVANN","fylke":"TROMS","kommune":"KVÆNANGEN","lat":69.904133000000002,"lon":21.875167000000001,"symbol":"Matfisk laks, ørret, regnbueørret","til_arter":"Laks, Regnbueørret, Ørret","til_produksjonsform":"Matfisk"}},{"type":"Feature","geometry":{"type":"Point","coordinates":[21.828982999999994,69.851983000000018]},"properties":{"loknr":10804,"navn":"KARVIKA","status_lokalitet":"KLARERT","kapasitet_lok":2700,"kapasitet_unittype":"TN","plassering":"SJØ","vannmiljo":"SALTVANN","fylke":"TROMS","kommune":"KVÆNANGEN","lat":69.851983000000004,"lon":21.828983000000001,"symbol":"Matfisk laks, ørret, regnbueørret","til_arter":"Laks, Regnbueørret, Ørret","til_produksjonsform":"Matfisk"}},{"type":"Feature","geometry":{"type":"Point","coordinates":[21.729983000000004,69.885066999999992]},"properties":{"loknr":10806,"navn":"RAKKENES","status_lokalitet":"KLARERT","kapasitet_lok":5400,"kapasitet_unittype":"TN","plassering":"SJØ","vannmiljo":"SALTVANN","fylke":"TROMS","kommune":"KVÆNANGEN","lat":69.885067000000006,"lon":21.729983000000001,"symbol":"Matfisk laks, ørret, regnbueørret","til_arter":"Laks, Regnbueørret, Ørret","til_produksjonsform":"Matfisk"}},{"type":"Feature","geometry":{"type":"Point","coordinates":[21.598767000000009,69.912249999999972]},"properties":{"loknr":10808,"navn":"HJELLBERGET","status_lokalitet":"KLARERT","kapasitet_lok":5400,"kapasitet_unittype":"TN","plassering":"SJØ","vannmiljo":"SALTVANN","fylke":"TROMS","kommune":"KVÆNANGEN","lat":69.91225,"lon":21.598767000000002,"symbol":"Matfisk laks, ørret, regnbueørret","til_arter":"Laks, Regnbueørret, Ørret","til_produksjonsform":"Matfisk"}},{"type":"Feature","geometry":{"type":"Point","coordinates":[23.330382999999983,70.133699999999976]},"properties":{"loknr":10811,"navn":"ELVA I ÅRØYSUNDET","status_lokalitet":"KLARERT","kapasitet_lok":1800,"kapasitet_unittype":"TN","plassering":"SJØ","vannmiljo":"SALTVANN","fylke":"FINNMARK","kommune":"ALTA","lat":70.133700000000005,"lon":23.330383000000001,"symbol":"Matfisk laks, ørret, regnbueørret","til_arter":"Laks, Regnbueørret, Ørret","til_produksjonsform":"Matfisk"}},{"type":"Feature","geometry":{"type":"Point","coordinates":[23.282350000000008,70.237416999999994]},"properties":{"loknr":10814,"navn":"MÅRSANJARGA","status_lokalitet":"KLARERT","kapasitet_lok":2700,"kapasitet_unittype":"TN","plassering":"SJØ","vannmiljo":"SALTVANN","fylke":"FINNMARK","kommune":"ALTA","lat":70.237416999999994,"lon":23.282350000000001,"symbol":"Matfisk laks, ørret, regnbueørret","til_arter":"Laks, Regnbueørret, Ørret","til_produksjonsform":"Matfisk"}},{"type":"Feature","geometry":{"type":"Point","coordinates":[22.755166999999972,70.091000000000008]},"properties":{"loknr":10819,"navn":"EIDSNES","status_lokalitet":"KLARERT","kapasitet_lok":1800,"kapasitet_unittype":"TN","plassering":"SJØ","vannmiljo":"SALTVANN","fylke":"FINNMARK","kommune":"ALTA","lat":70.090999999999994,"lon":22.755167,"symbol":"Matfisk laks, ørret, regnbueørret","til_arter":"Laks, Regnbueørret, Ørret","til_produksjonsform":"Matfisk"}},{"type":"Feature","geometry":{"type":"Point","coordinates":[22.705367000000024,70.090050000000019]},"properties":{"loknr":10821,"navn":"TUVAN","status_lokalitet":"KLARERT","kapasitet_lok":3480,"kapasitet_unittype":"TN","plassering":"SJØ","vannmiljo":"SALTVANN","fylke":"FINNMARK","kommune":"ALTA","lat":70.090050000000005,"lon":22.705367000000003,"symbol":"Matfisk laks, ørret, regnbueørret","til_arter":"Laks, Regnbueørret, Ørret","til_produksjonsform":"Matfisk"}},{"type":"Feature","geometry":{"type":"Point","coordinates":[22.661800000000028,70.085867000000007]},"properties":{"loknr":10822,"navn":"RIVARBUKT","status_lokalitet":"KLARERT","kapasitet_lok":3480,"kapasitet_unittype":"TN","plassering":"SJØ","vannmiljo":"SALTVANN","fylke":"FINNMARK","kommune":"ALTA","lat":70.085867000000007,"lon":22.661799999999999,"symbol":"Matfisk laks, ørret, regnbueørret","til_arter":"Laks, Regnbueørret, Ørret","til_produksjonsform":"Matfisk"}},{"type":"Feature","geometry":{"type":"Point","coordinates":[22.308066999999994,70.151467000000025]},"properties":{"loknr":10825,"navn":"STEINVIKNES","status_lokalitet":"KLARERT","kapasitet_lok":2700,"kapasitet_unittype":"TN","plassering":"SJØ","vannmiljo":"SALTVANN","fylke":"FINNMARK","kommune":"LOPPA","lat":70.151466999999997,"lon":22.308067000000001,"symbol":"Matfisk laks, ørret, regnbueørret","til_arter":"Laks, Regnbueørret, Ørret","til_produksjonsform":"Matfisk"}},{"type":"Feature","geometry":{"type":"Point","coordinates":[23.557900000000018,70.538200000000018]},"properties":{"loknr":10828,"navn":"KLEPPENES N","status_lokalitet":"KLARERT","kapasitet_lok":5400,"kapasitet_unittype":"TN","plassering":"SJØ","vannmiljo":"SALTVANN","fylke":"FINNMARK","kommune":"HAMMERFEST","lat":70.538200000000003,"lon":23.5579,"symbol":"Matfisk laks, ørret, regnbueørret","til_arter":"Laks, Regnbueørret, Ørret","til_produksjonsform":"Matfisk"}},{"type":"Feature","geometry":{"type":"Point","coordinates":[23.184933000000001,70.666549999999972]},"properties":{"loknr":10837,"navn":"KRAKEN","status_lokalitet":"KLARERT","kapasitet_lok":5999,"kapasitet_unittype":"TN","plassering":"SJØ","vannmiljo":"SALTVANN","fylke":"FINNMARK","kommune":"HAMMERFEST","lat":70.666550000000001,"lon":23.184932999999997,"symbol":"Matfisk laks, ørret, regnbueørret","til_arter":"Laks, Regnbueørret, Ørret","til_produksjonsform":"Matfisk"}},{"type":"Feature","geometry":{"type":"Point","coordinates":[23.109516999999983,70.626516999999978]},"properties":{"loknr":10838,"navn":"SLETTNESFJORD","status_lokalitet":"KLARERT","kapasitet_lok":7560,"kapasitet_unittype":"TN","plassering":"SJØ","vannmiljo":"SALTVANN","fylke":"FINNMARK","kommune":"HAMMERFEST","lat":70.626516999999993,"lon":23.109517,"symbol":"Matfisk laks, ørret, regnbueørret","til_arter":"Laks, Regnbueørret, Ørret","til_produksjonsform":"Matfisk"}},{"type":"Feature","geometry":{"type":"Point","coordinates":[23.079116999999997,70.353317000000004]},"properties":{"loknr":10839,"navn":"STORE KUFJORD","status_lokalitet":"KLARERT","kapasitet_lok":2700,"kapasitet_unittype":"TN","plassering":"SJØ","vannmiljo":"SALTVANN","fylke":"FINNMARK","kommune":"ALTA","lat":70.353317000000004,"lon":23.079117,"symbol":"Matfisk laks, ørret, regnbueørret","til_arter":"Laks, Regnbueørret, Ørret","til_produksjonsform":"Matfisk"}},{"type":"Feature","geometry":{"type":"Point","coordinates":[22.972966999999983,70.347516999999982]},"properties":{"loknr":10840,"navn":"LILLE KUFJORD","status_lokalitet":"KLARERT","kapasitet_lok":4500,"kapasitet_unittype":"TN","plassering":"SJØ","vannmiljo":"SALTVANN","fylke":"FINNMARK","kommune":"ALTA","lat":70.347516999999996,"lon":22.972967000000001,"symbol":"Matfisk laks, ørret, regnbueørret","til_arter":"Laks, Regnbueørret, Ørret","til_produksjonsform":"Matfisk"}},{"type":"Feature","geometry":{"type":"Point","coordinates":[22.805067000000008,70.34129999999999]},"properties":{"loknr":10841,"navn":"POLLEN","status_lokalitet":"KLARERT","kapasitet_lok":1800,"kapasitet_unittype":"TN","plassering":"SJØ","vannmiljo":"SALTVANN","fylke":"FINNMARK","kommune":"ALTA","lat":70.341300000000004,"lon":22.805067000000001,"symbol":"Matfisk laks, ørret, regnbueørret","til_arter":"Laks, Regnbueørret, Ørret","til_produksjonsform":"Matfisk"}},{"type":"Feature","geometry":{"type":"Point","coordinates":[12.168866999999977,62.076067000000023]},"properties":{"loknr":10850,"navn":"VALDALEN","status_lokalitet":"KLARERT","kapasitet_lok":2043,"kapasitet_unittype":"M3","plassering":"LAND","vannmiljo":"FERSKVANN","fylke":"INNLANDET","kommune":"ENGERDAL","lat":62.076067000000002,"lon":12.168866999999999,"symbol":"Matfisk laks, ørret, regnbueørret","til_arter":"Regnbueørret","til_produksjonsform":"Matfisk"}},{"type":"Feature","geometry":{"type":"Point","coordinates":[12.518989999999974,65.336224000000016]},"properties":{"loknr":10856,"navn":"FUGLLIELVA","status_lokalitet":"KLARERT","kapasitet_lok":14.300000000000001,"kapasitet_unittype":"TN","plassering":"LAND","vannmiljo":"FERSKVANN","fylke":"NORDLAND","kommune":"BRØNNØY","lat":65.336224000000001,"lon":12.518990000000001,"symbol":"Andre","til_arter":"Røye","til_produksjonsform":"Matfisk"}},{"type":"Feature","geometry":{"type":"Point","coordinates":[12.478349999999978,65.420700000000011]},"properties":{"loknr":10857,"navn":"GRANHOLMEN","status_lokalitet":"KLARERT","kapasitet_lok":10,"kapasitet_unittype":"DA","plassering":"SJØ","vannmiljo":"SALTVANN","fylke":"NORDLAND","kommune":"BRØNNØY","lat":65.420699999999997,"lon":12.478350000000001,"symbol":"Bløtdyr, krepsdyr, pigghuder","til_arter":"Blåskjell","til_produksjonsform":"Akvakulturdyr til konsum"}},{"type":"Feature","geometry":{"type":"Point","coordinates":[12.438132999999993,65.108317]},"properties":{"loknr":10858,"navn":"MULINGEN","status_lokalitet":"KLARERT","kapasitet_lok":2860,"kapasitet_unittype":"TN","plassering":"SJØ","vannmiljo":"SALTVANN","fylke":"NORDLAND","kommune":"BINDAL","lat":65.108317,"lon":12.438133000000001,"symbol":"Matfisk laks, ørret, regnbueørret","til_arter":"Laks, Regnbueørret, Ørret","til_produksjonsform":"Matfisk"}},{"type":"Feature","geometry":{"type":"Point","coordinates":[12.441050000000018,65.078599999999994]},"properties":{"loknr":10859,"navn":"GORRVIKA","status_lokalitet":"KLARERT","kapasitet_lok":10,"kapasitet_unittype":"DA","plassering":"SJØ","vannmiljo":"SALTVANN","fylke":"NORDLAND","kommune":"BINDAL","lat":65.078599999999994,"lon":12.441050000000001,"symbol":"Bløtdyr, krepsdyr, pigghuder","til_arter":"Blåskjell","til_produksjonsform":"Akvakulturdyr til konsum"}},{"type":"Feature","geometry":{"type":"Point","coordinates":[12.419421,65.190000999999995]},"properties":{"loknr":10860,"navn":"KLUBBEN","status_lokalitet":"KLARERT","kapasitet_lok":10,"kapasitet_unittype":"DA","plassering":"SJØ","vannmiljo":"SALTVANN","fylke":"NORDLAND","kommune":"BINDAL","lat":65.190000999999995,"lon":12.419421,"symbol":"Bløtdyr, krepsdyr, pigghuder","til_arter":"Blåskjell","til_produksjonsform":"Akvakulturdyr til konsum"}},{"type":"Feature","geometry":{"type":"Point","coordinates":[12.321466999999984,65.117666999999983]},"properties":{"loknr":10862,"navn":"BÅSEN","status_lokalitet":"KLARERT","kapasitet_lok":2860,"kapasitet_unittype":"TN","plassering":"SJØ","vannmiljo":"SALTVANN","fylke":"NORDLAND","kommune":"BINDAL","lat":65.117666999999997,"lon":12.321467,"symbol":"Matfisk laks, ørret, regnbueørret","til_arter":"Laks, Regnbueørret, Ørret","til_produksjonsform":"Matfisk"}},{"type":"Feature","geometry":{"type":"Point","coordinates":[12.251266999999984,65.113067000000001]},"properties":{"loknr":10863,"navn":"VIKESTADVÅGEN","status_lokalitet":"KLARERT","kapasitet_lok":10,"kapasitet_unittype":"DA","plassering":"SJØ","vannmiljo":"SALTVANN","fylke":"NORDLAND","kommune":"BINDAL","lat":65.113067000000001,"lon":12.251267,"symbol":"Bløtdyr, krepsdyr, pigghuder","til_arter":"Blåskjell","til_produksjonsform":"Akvakulturdyr til konsum"}},{"type":"Feature","geometry":{"type":"Point","coordinates":[12.185906999999986,65.034049999999979]},"properties":{"loknr":10864,"navn":"ISNAUSTET","status_lokalitet":"KLARERT","kapasitet_lok":10,"kapasitet_unittype":"DA","plassering":"SJØ","vannmiljo":"SALTVANN","fylke":"NORDLAND","kommune":"BINDAL","lat":65.034050000000008,"lon":12.185907,"symbol":"Bløtdyr, krepsdyr, pigghuder","til_arter":"Blåskjell","til_produksjonsform":"Akvakulturdyr til konsum"}},{"type":"Feature","geometry":{"type":"Point","coordinates":[12.099989999999991,65.062041000000022]},"properties":{"loknr":10865,"navn":"VARVASSVIKA","status_lokalitet":"KLARERT","kapasitet_lok":10,"kapasitet_unittype":"DA","plassering":"SJØ","vannmiljo":"SALTVANN","fylke":"NORDLAND","kommune":"BINDAL","lat":65.062040999999994,"lon":12.09999,"symbol":"Bløtdyr, krepsdyr, pigghuder","til_arter":"Blåskjell","til_produksjonsform":"Akvakulturdyr til konsum"}},{"type":"Feature","geometry":{"type":"Point","coordinates":[12.653166999999996,65.476816999999983]},"properties":{"loknr":10868,"navn":"SKAVIKA","status_lokalitet":"KLARERT","kapasitet_lok":10,"kapasitet_unittype":"DA","plassering":"SJØ","vannmiljo":"SALTVANN","fylke":"NORDLAND","kommune":"BRØNNØY","lat":65.476816999999997,"lon":12.653167,"symbol":"Bløtdyr, krepsdyr, pigghuder","til_arter":"Blåskjell","til_produksjonsform":"Akvakulturdyr til konsum"}},{"type":"Feature","geometry":{"type":"Point","coordinates":[12.651166999999987,65.484332999999992]},"properties":{"loknr":10869,"navn":"LAVIKA","status_lokalitet":"KLARERT","kapasitet_lok":10,"kapasitet_unittype":"DA","plassering":"SJØ","vannmiljo":"SALTVANN","fylke":"NORDLAND","kommune":"BRØNNØY","lat":65.484333000000007,"lon":12.651166999999999,"symbol":"Bløtdyr, krepsdyr, pigghuder","til_arter":"Blåskjell","til_produksjonsform":"Akvakulturdyr til konsum"}},{"type":"Feature","geometry":{"type":"Point","coordinates":[12.636500000000012,65.48191700000001]},"properties":{"loknr":10872,"navn":"KVITNESET","status_lokalitet":"KLARERT","kapasitet_lok":10,"kapasitet_unittype":"DA","plassering":"SJØ","vannmiljo":"SALTVANN","fylke":"NORDLAND","kommune":"BRØNNØY","lat":65.481916999999996,"lon":12.6365,"symbol":"Bløtdyr, krepsdyr, pigghuder","til_arter":"Blåskjell","til_produksjonsform":"Akvakulturdyr til konsum"}},{"type":"Feature","geometry":{"type":"Point","coordinates":[12.562866999999983,65.446349999999995]},"properties":{"loknr":10876,"navn":"ISTERVIKA","status_lokalitet":"KLARERT","kapasitet_lok":4680,"kapasitet_unittype":"TN","plassering":"SJØ","vannmiljo":"SALTVANN","fylke":"NORDLAND","kommune":"BRØNNØY","lat":65.446349999999995,"lon":12.562866999999999,"symbol":"Matfisk laks, ørret, regnbueørret","til_arter":"Laks, Regnbueørret, Ørret","til_produksjonsform":"Matfisk"}},{"type":"Feature","geometry":{"type":"Point","coordinates":[12.549733000000003,65.457232999999974]},"properties":{"loknr":10877,"navn":"MORTENØY","status_lokalitet":"KLARERT","kapasitet_lok":3120,"kapasitet_unittype":"TN","plassering":"SJØ","vannmiljo":"SALTVANN","fylke":"NORDLAND","kommune":"BRØNNØY","lat":65.457233000000002,"lon":12.549733,"symbol":"Matfisk laks, ørret, regnbueørret","til_arter":"Laks, Regnbueørret, Ørret","til_produksjonsform":"Matfisk"}},{"type":"Feature","geometry":{"type":"Point","coordinates":[12.463932999999997,65.435166999999979]},"properties":{"loknr":10882,"navn":"KOBBSKJÆRET","status_lokalitet":"KLARERT","kapasitet_lok":20,"kapasitet_unittype":"DA","plassering":"SJØ","vannmiljo":"SALTVANN","fylke":"NORDLAND","kommune":"BRØNNØY","lat":65.435167000000007,"lon":12.463933000000001,"symbol":"Bløtdyr, krepsdyr, pigghuder","til_arter":"Blåskjell","til_produksjonsform":"Akvakulturdyr til konsum"}},{"type":"Feature","geometry":{"type":"Point","coordinates":[12.072850000000017,66.504117000000008]},"properties":{"loknr":10893,"navn":"RENSØYA N","status_lokalitet":"KLARERT","kapasitet_lok":3600,"kapasitet_unittype":"TN","plassering":"SJØ","vannmiljo":"SALTVANN","fylke":"NORDLAND","kommune":"TRÆNA","lat":66.504116999999994,"lon":12.072850000000001,"symbol":"Matfisk laks, ørret, regnbueørret","til_arter":"Laks, Regnbueørret, Ørret","til_produksjonsform":"Matfisk"}},{"type":"Feature","geometry":{"type":"Point","coordinates":[12.134999999999991,65.471383000000003]},"properties":{"loknr":10898,"navn":"LAMHOLMEN","status_lokalitet":"KLARERT","kapasitet_lok":1560,"kapasitet_unittype":"TN","plassering":"SJØ","vannmiljo":"SALTVANN","fylke":"NORDLAND","kommune":"BRØNNØY","lat":65.471383000000003,"lon":12.135,"symbol":"Matfisk laks, ørret, regnbueørret","til_arter":"Laks, Regnbueørret, Ørret","til_produksjonsform":"Matfisk"}},{"type":"Feature","geometry":{"type":"Point","coordinates":[12.582309000000009,65.81574599999999]},"properties":{"loknr":10922,"navn":"FLATØYMARKA Ø","status_lokalitet":"KLARERT","kapasitet_lok":10,"kapasitet_unittype":"DA","plassering":"SJØ","vannmiljo":"SALTVANN","fylke":"NORDLAND","kommune":"ALSTAHAUG","lat":65.815746000000004,"lon":12.582309,"symbol":"Bløtdyr, krepsdyr, pigghuder","til_arter":"Blåskjell","til_produksjonsform":"Akvakulturdyr til konsum"}},{"type":"Feature","geometry":{"type":"Point","coordinates":[12.72986400000002,65.805438999999978]},"properties":{"loknr":10948,"navn":"GRYTÅGA","status_lokalitet":"KLARERT","kapasitet_lok":760,"kapasitet_unittype":"TN","plassering":"LAND","vannmiljo":"FERSKVANN","fylke":"NORDLAND","kommune":"VEFSN","lat":65.805439000000007,"lon":12.729864000000001,"symbol":"Settefisk laks, ørret, regnbueørret","til_arter":"Laks, Regnbueørret, Ørret","til_produksjonsform":"Settefisk"}},{"type":"Feature","geometry":{"type":"Point","coordinates":[12.705199999999991,66.007049999999992]},"properties":{"loknr":10949,"navn":"KJERRINGSKJÆRET NØ","status_lokalitet":"KLARERT","kapasitet_lok":10,"kapasitet_unittype":"DA","plassering":"SJØ","vannmiljo":"SALTVANN","fylke":"NORDLAND","kommune":"ALSTAHAUG","lat":66.007050000000007,"lon":12.7052,"symbol":"Bløtdyr, krepsdyr, pigghuder","til_arter":"Blåskjell","til_produksjonsform":"Akvakulturdyr til konsum"}},{"type":"Feature","geometry":{"type":"Point","coordinates":[12.694216999999981,66.003917000000001]},"properties":{"loknr":10951,"navn":"KJERRINGSKJÆRET SV","status_lokalitet":"KLARERT","kapasitet_lok":10,"kapasitet_unittype":"DA","plassering":"SJØ","vannmiljo":"SALTVANN","fylke":"NORDLAND","kommune":"ALSTAHAUG","lat":66.003917000000001,"lon":12.694217,"symbol":"Bløtdyr, krepsdyr, pigghuder","til_arter":"Blåskjell","til_produksjonsform":"Akvakulturdyr til konsum"}},{"type":"Feature","geometry":{"type":"Point","coordinates":[12.624199999999973,65.80763300000001]},"properties":{"loknr":10961,"navn":"SKONSENG","status_lokalitet":"KLARERT","kapasitet_lok":3120,"kapasitet_unittype":"TN","plassering":"SJØ","vannmiljo":"SALTVANN","fylke":"NORDLAND","kommune":"VEFSN","lat":65.807632999999996,"lon":12.6242,"symbol":"Matfisk laks, ørret, regnbueørret","til_arter":"Laks, Regnbueørret, Ørret","til_produksjonsform":"Matfisk"}},{"type":"Feature","geometry":{"type":"Point","coordinates":[12.411699999999996,66.400716999999986]},"properties":{"loknr":10974,"navn":"STORE BUKKØY N","status_lokalitet":"KLARERT","kapasitet_lok":3120,"kapasitet_unittype":"TN","plassering":"SJØ","vannmiljo":"SALTVANN","fylke":"NORDLAND","kommune":"LURØY","lat":66.400717,"lon":12.4117,"symbol":"Matfisk laks, ørret, regnbueørret","til_arter":"Laks, Regnbueørret, Ørret","til_produksjonsform":"Matfisk"}},{"type":"Feature","geometry":{"type":"Point","coordinates":[12.371417000000008,66.3673]},"properties":{"loknr":10978,"navn":"NAUSTHOLMEN","status_lokalitet":"KLARERT","kapasitet_lok":520,"kapasitet_unittype":"TN","plassering":"SJØ","vannmiljo":"SALTVANN","fylke":"NORDLAND","kommune":"LURØY","lat":66.3673,"lon":12.371416999999999,"symbol":"Slaktemerd","til_arter":"Laks, Regnbueørret, Ørret","til_produksjonsform":"Matfisk"}},{"type":"Feature","geometry":{"type":"Point","coordinates":[12.350567000000012,66.013250000000028]},"properties":{"loknr":10989,"navn":"LABUKTA V","status_lokalitet":"KLARERT","kapasitet_lok":1560,"kapasitet_unittype":"TN","plassering":"SJØ","vannmiljo":"SALTVANN","fylke":"NORDLAND","kommune":"HERØY I NORDLAND","lat":66.013249999999999,"lon":12.350567,"symbol":"Matfisk laks, ørret, regnbueørret","til_arter":"Laks, Regnbueørret, Ørret","til_produksjonsform":"Matfisk"}},{"type":"Feature","geometry":{"type":"Point","coordinates":[12.31226700000002,66.22886699999998]},"properties":{"loknr":10990,"navn":"LILLE ÅSVÆR","status_lokalitet":"KLARERT","kapasitet_lok":6240,"kapasitet_unittype":"TN","plassering":"SJØ","vannmiljo":"SALTVANN","fylke":"NORDLAND","kommune":"DØNNA","lat":66.228867000000008,"lon":12.312267,"symbol":"Matfisk laks, ørret, regnbueørret","til_arter":"Laks, Regnbueørret, Ørret","til_produksjonsform":"Matfisk"}},{"type":"Feature","geometry":{"type":"Point","coordinates":[12.220966999999973,65.907350000000008]},"properties":{"loknr":11015,"navn":"BRATTHOLMEN","status_lokalitet":"KLARERT","kapasitet_lok":4680,"kapasitet_unittype":"TN","plassering":"SJØ","vannmiljo":"SALTVANN","fylke":"NORDLAND","kommune":"HERØY I NORDLAND","lat":65.907350000000008,"lon":12.220967,"symbol":"Matfisk laks, ørret, regnbueørret","til_arter":"Laks, Regnbueørret, Ørret","til_produksjonsform":"Matfisk"}},{"type":"Feature","geometry":{"type":"Point","coordinates":[12.065616999999975,66.070350000000019]},"properties":{"loknr":11041,"navn":"NORD GÅSVÆR","status_lokalitet":"KLARERT","kapasitet_lok":5999,"kapasitet_unittype":"TN","plassering":"SJØ","vannmiljo":"SALTVANN","fylke":"NORDLAND","kommune":"HERØY I NORDLAND","lat":66.070350000000005,"lon":12.065617,"symbol":"Matfisk laks, ørret, regnbueørret","til_arter":"Laks, Regnbueørret, Ørret","til_produksjonsform":"Matfisk"}},{"type":"Feature","geometry":{"type":"Point","coordinates":[14.442573999999979,65.898415]},"properties":{"loknr":11063,"navn":"NYMOEN","status_lokalitet":"KLARERT","kapasitet_lok":14,"kapasitet_unittype":"TN","plassering":"LAND","vannmiljo":"FERSKVANN","fylke":"NORDLAND","kommune":"HEMNES","lat":65.898415,"lon":14.442574,"symbol":"Andre","til_arter":"Røye","til_produksjonsform":"Matfisk"}},{"type":"Feature","geometry":{"type":"Point","coordinates":[14.182500000000005,66.306667000000004]},"properties":{"loknr":11064,"navn":"SVABO","status_lokalitet":"KLARERT","kapasitet_lok":8500000,"kapasitet_unittype":"STK","plassering":"LAND","vannmiljo":"FERSKVANN","fylke":"NORDLAND","kommune":"RANA","lat":66.306667000000004,"lon":14.182499999999999,"symbol":"Settefisk laks, ørret, regnbueørret","til_arter":"Laks, Regnbueørret, Ørret","til_produksjonsform":"Settefisk"}},{"type":"Feature","geometry":{"type":"Point","coordinates":[14.161203999999998,66.314340000000016]},"properties":{"loknr":11067,"navn":"MO INDUSTRIPARK","status_lokalitet":"KLARERT","kapasitet_lok":2500000,"kapasitet_unittype":"STK","plassering":"LAND","vannmiljo":"FERSKVANN","fylke":"NORDLAND","kommune":"RANA","lat":66.314340000000001,"lon":14.161204000000001,"symbol":"Settefisk laks, ørret, regnbueørret","til_arter":"Laks, Regnbueørret, Røye, Ørret","til_produksjonsform":"Settefisk"}},{"type":"Feature","geometry":{"type":"Point","coordinates":[13.624117000000012,66.699349999999981]},"properties":{"loknr":11072,"navn":"RENDALSVIK","status_lokalitet":"KLARERT","kapasitet_lok":3120,"kapasitet_unittype":"TN","plassering":"SJØ","vannmiljo":"SALTVANN","fylke":"NORDLAND","kommune":"MELØY","lat":66.699349999999995,"lon":13.624117,"symbol":"Matfisk laks, ørret, regnbueørret","til_arter":"Laks, Regnbueørret, Ørret","til_produksjonsform":"Matfisk"}},{"type":"Feature","geometry":{"type":"Point","coordinates":[13.391633000000013,66.669083000000001]},"properties":{"loknr":11074,"navn":"KVALVIKA","status_lokalitet":"KLARERT","kapasitet_lok":3120,"kapasitet_unittype":"TN","plassering":"SJØ","vannmiljo":"SALTVANN","fylke":"NORDLAND","kommune":"RØDØY","lat":66.669083000000001,"lon":13.391633000000001,"symbol":"Matfisk laks, ørret, regnbueørret","til_arter":"Laks, Regnbueørret, Ørret","til_produksjonsform":"Matfisk"}},{"type":"Feature","geometry":{"type":"Point","coordinates":[13.317517000000009,66.67573299999998]},"properties":{"loknr":11076,"navn":"DIGERMULEN","status_lokalitet":"KLARERT","kapasitet_lok":3120,"kapasitet_unittype":"TN","plassering":"SJØ","vannmiljo":"SALTVANN","fylke":"NORDLAND","kommune":"RØDØY","lat":66.675733000000008,"lon":13.317517,"symbol":"Matfisk laks, ørret, regnbueørret","til_arter":"Laks, Regnbueørret, Ørret","til_produksjonsform":"Matfisk"}},{"type":"Feature","geometry":{"type":"Point","coordinates":[12.994582999999977,66.640966999999989]},"properties":{"loknr":11087,"navn":"BUKKØYA Ø","status_lokalitet":"KLARERT","kapasitet_lok":3600,"kapasitet_unittype":"TN","plassering":"SJØ","vannmiljo":"SALTVANN","fylke":"NORDLAND","kommune":"RØDØY","lat":66.640967000000003,"lon":12.994583,"symbol":"Matfisk laks, ørret, regnbueørret","til_arter":"Laks, Regnbueørret, Ørret","til_produksjonsform":"Matfisk"}},{"type":"Feature","geometry":{"type":"Point","coordinates":[14.268399999999986,67.107833000000028]},"properties":{"loknr":11112,"navn":"KJERKVIKA","status_lokalitet":"KLARERT","kapasitet_lok":780,"kapasitet_unittype":"TN","plassering":"SJØ","vannmiljo":"SALTVANN","fylke":"NORDLAND","kommune":"GILDESKÅL","lat":67.107832999999999,"lon":14.2684,"symbol":"Matfisk laks, ørret, regnbueørret","til_arter":"Laks, Regnbueørret, Ørret","til_produksjonsform":"Matfisk"}},{"type":"Feature","geometry":{"type":"Point","coordinates":[14.025332999999989,67.057833000000016]},"properties":{"loknr":11116,"navn":"LANGHOLMEN","status_lokalitet":"KLARERT","kapasitet_lok":780,"kapasitet_unittype":"TN","plassering":"SJØ","vannmiljo":"SALTVANN","fylke":"NORDLAND","kommune":"GILDESKÅL","lat":67.057833000000002,"lon":14.025333,"symbol":"Matfisk laks, ørret, regnbueørret","til_arter":"Laks, Regnbueørret, Ørret","til_produksjonsform":"Matfisk"}},{"type":"Feature","geometry":{"type":"Point","coordinates":[13.947583000000009,67.072999999999979]},"properties":{"loknr":11122,"navn":"RØSSØYA N","status_lokalitet":"KLARERT","kapasitet_lok":3120,"kapasitet_unittype":"TN","plassering":"SJØ","vannmiljo":"SALTVANN","fylke":"NORDLAND","kommune":"GILDESKÅL","lat":67.072999999999993,"lon":13.947583,"symbol":"Matfisk laks, ørret, regnbueørret","til_arter":"Laks, Regnbueørret, Ørret","til_produksjonsform":"Matfisk"}},{"type":"Feature","geometry":{"type":"Point","coordinates":[13.916805000000011,66.808087]},"properties":{"loknr":11127,"navn":"GLOMFJORD III","status_lokalitet":"KLARERT","kapasitet_lok":1400,"kapasitet_unittype":"TN","plassering":"LAND","vannmiljo":"FERSKVANN","fylke":"NORDLAND","kommune":"MELØY","lat":66.808087,"lon":13.916805,"symbol":"Settefisk laks, ørret, regnbueørret","til_arter":"Laks, Regnbueørret, Ørret","til_produksjonsform":"Settefisk"}},{"type":"Feature","geometry":{"type":"Point","coordinates":[13.856850000000009,67.083916999999985]},"properties":{"loknr":11129,"navn":"NORDFUGLØY","status_lokalitet":"KLARERT","kapasitet_lok":6240,"kapasitet_unittype":"TN","plassering":"SJØ","vannmiljo":"SALTVANN","fylke":"NORDLAND","kommune":"GILDESKÅL","lat":67.083917,"lon":13.85685,"symbol":"Matfisk laks, ørret, regnbueørret","til_arter":"Laks, Regnbueørret, Ørret","til_produksjonsform":"Matfisk"}},{"type":"Feature","geometry":{"type":"Point","coordinates":[13.562282999999979,66.713416999999993]},"properties":{"loknr":11138,"navn":"SKÅLSVIKA","status_lokalitet":"KLARERT","kapasitet_lok":3600,"kapasitet_unittype":"TN","plassering":"SJØ","vannmiljo":"SALTVANN","fylke":"NORDLAND","kommune":"MELØY","lat":66.713417000000007,"lon":13.562283000000001,"symbol":"Matfisk laks, ørret, regnbueørret","til_arter":"Laks, Regnbueørret, Ørret","til_produksjonsform":"Matfisk"}},{"type":"Feature","geometry":{"type":"Point","coordinates":[13.171382999999992,66.76948299999998]},"properties":{"loknr":11144,"navn":"SVINVÆR","status_lokalitet":"KLARERT","kapasitet_lok":6240,"kapasitet_unittype":"TN","plassering":"SJØ","vannmiljo":"SALTVANN","fylke":"NORDLAND","kommune":"RØDØY","lat":66.769483000000008,"lon":13.171383000000001,"symbol":"Matfisk laks, ørret, regnbueørret","til_arter":"Laks, Regnbueørret, Ørret","til_produksjonsform":"Matfisk"}},{"type":"Feature","geometry":{"type":"Point","coordinates":[14.848082999999974,68.435116999999991]},"properties":{"loknr":11162,"navn":"BULLATHOLMEN","status_lokalitet":"KLARERT","kapasitet_lok":1560,"kapasitet_unittype":"TN","plassering":"SJØ","vannmiljo":"SALTVANN","fylke":"NORDLAND","kommune":"HADSEL","lat":68.435117000000005,"lon":14.848083000000001,"symbol":"Matfisk laks, ørret, regnbueørret","til_arter":"Laks, Regnbueørret, Ørret","til_produksjonsform":"Matfisk"}},{"type":"Feature","geometry":{"type":"Point","coordinates":[14.769217000000026,68.270382999999981]},"properties":{"loknr":11168,"navn":"ODDVÆRSÆTRA","status_lokalitet":"KLARERT","kapasitet_lok":1560,"kapasitet_unittype":"TN","plassering":"SJØ","vannmiljo":"SALTVANN","fylke":"NORDLAND","kommune":"VÅGAN","lat":68.27038300000001,"lon":14.769216999999999,"symbol":"Matfisk laks, ørret, regnbueørret","til_arter":"Laks, Regnbueørret, Ørret","til_produksjonsform":"Matfisk"}},{"type":"Feature","geometry":{"type":"Point","coordinates":[14.469633999999985,68.387841999999978]},"properties":{"loknr":11175,"navn":"STRØMNES SKOLE","status_lokalitet":"KLARERT","kapasitet_lok":100,"kapasitet_unittype":"STK","plassering":"LAND","vannmiljo":"FERSKVANN","fylke":"NORDLAND","kommune":"VÅGAN","lat":68.387841999999992,"lon":14.469633999999999,"symbol":"Settefisk laks, ørret, regnbueørret","til_arter":"Laks, Regnbueørret, Røye, Ørret","til_produksjonsform":"Settefisk"}},{"type":"Feature","geometry":{"type":"Point","coordinates":[14.446716999999978,68.207267000000002]},"properties":{"loknr":11179,"navn":"ALTEROSEN","status_lokalitet":"KLARERT","kapasitet_lok":78,"kapasitet_unittype":"TN","plassering":"SJØ","vannmiljo":"SALTVANN","fylke":"NORDLAND","kommune":"VÅGAN","lat":68.207267000000002,"lon":14.446717,"symbol":"Særtillatelser","til_arter":"Laks, Regnbueørret, Ørret","til_produksjonsform":"Matfisk"}},{"type":"Feature","geometry":{"type":"Point","coordinates":[14.3245,68.326666999999986]},"properties":{"loknr":11180,"navn":"BRENNA","status_lokalitet":"KLARERT","kapasitet_lok":1000000,"kapasitet_unittype":"STK","plassering":"LAND","vannmiljo":"FERSKVANN","fylke":"NORDLAND","kommune":"VÅGAN","lat":68.326667,"lon":14.3245,"symbol":"Settefisk laks, ørret, regnbueørret","til_arter":"Laks, Regnbueørret, Ørret","til_produksjonsform":"Settefisk"}},{"type":"Feature","geometry":{"type":"Point","coordinates":[13.743049999999982,68.110549999999989]},"properties":{"loknr":11193,"navn":"GAMSKJÆRAN","status_lokalitet":"KLARERT","kapasitet_lok":1560,"kapasitet_unittype":"TN","plassering":"SJØ","vannmiljo":"SALTVANN","fylke":"NORDLAND","kommune":"VESTVÅGØY","lat":68.110550000000003,"lon":13.74305,"symbol":"Matfisk laks, ørret, regnbueørret","til_arter":"Laks, Regnbueørret, Ørret","til_produksjonsform":"Matfisk"}},{"type":"Feature","geometry":{"type":"Point","coordinates":[13.736966999999993,68.090832999999975]},