[
  {
    "id": "kiwi-21641553",
    "osmId": 21641553,
    "name": "Kiwi Frekhaug",
    "chain": "Kiwi",
    "chainId": "kiwi",
    "storeType": "discount",
    "location": {
      "lat": 60.51755,
      "lng": 5.239735
    },
    "address": "",
    "city": "",
    "postcode": "",
    "openingHours": "Mo-Sa 07:00-23:00",
    "wheelchair": "yes",
    "phone": "+47 56178005",
    "website": "",
    "organic": ""
  },
  {
    "id": "kiwi-26198200",
    "osmId": 26198200,
    "name": "Kiwi Rosseland",
    "chain": "Kiwi",
    "chainId": "kiwi",
    "storeType": "discount",
    "location": {
      "lat": 58.734589,
      "lng": 5.665553
    },
    "address": "",
    "city": "",
    "postcode": "",
    "openingHours": "Mo-Sa 07:00-23:00",
    "wheelchair": "",
    "phone": "+47 51483393",
    "website": "",
    "organic": ""
  },
  {
    "id": "joker-26343787",
    "osmId": 26343787,
    "name": "Joker Starveien",
    "chain": "Joker",
    "chainId": "joker",
    "storeType": "convenience",
    "location": {
      "lat": 59.944679,
      "lng": 10.936411
    },
    "address": "",
    "city": "",
    "postcode": "",
    "openingHours": "Mo-Fr 08:00-22:00, Sa-Su 09:00-21:00",
    "wheelchair": "",
    "phone": "+47 22102416",
    "website": "",
    "organic": ""
  },
  {
    "id": "extra-29763917",
    "osmId": 29763917,
    "name": "Extra Sædalen",
    "chain": "Extra",
    "chainId": "extra",
    "storeType": "discount",
    "location": {
      "lat": 60.345111,
      "lng": 5.394242
    },
    "address": "",
    "city": "",
    "postcode": "",
    "openingHours": "Mo-Sa 07:00-23:00",
    "wheelchair": "yes",
    "phone": "",
    "website": "",
    "organic": ""
  },
  {
    "id": "joker-31026176",
    "osmId": 31026176,
    "name": "Joker Carl Berner",
    "chain": "Joker",
    "chainId": "joker",
    "storeType": "convenience",
    "location": {
      "lat": 59.9251825,
      "lng": 10.7750195
    },
    "address": "",
    "city": "",
    "postcode": "",
    "openingHours": "24/7",
    "wheelchair": "yes",
    "phone": "+47 47977873",
    "website": "",
    "organic": ""
  },
  {
    "id": "coop-marked-31116603",
    "osmId": 31116603,
    "name": "Coop Marked Flåm",
    "chain": "Coop Marked",
    "chainId": "coop-marked",
    "storeType": "convenience",
    "location": {
      "lat": 60.864,
      "lng": 7.11605
    },
    "address": "",
    "city": "",
    "postcode": "",
    "openingHours": "Mo-Fr 08:00-20:00, Sa 09:00-18:00, Su 12:00-18:00",
    "wheelchair": "yes",
    "phone": "",
    "website": "",
    "organic": ""
  },
  {
    "id": "joker-32524978",
    "osmId": 32524978,
    "name": "Joker Skarsmo",
    "chain": "Joker",
    "chainId": "joker",
    "storeType": "convenience",
    "location": {
      "lat": 59.93581,
      "lng": 6.587419
    },
    "address": "",
    "city": "",
    "postcode": "",
    "openingHours": "Mo-Th 09:00-17:00, Fr 09:00-20:00, Sa 09:00-17:00",
    "wheelchair": "",
    "phone": "+47 53645111",
    "website": "",
    "organic": ""
  },
  {
    "id": "coop-prix-33412898",
    "osmId": 33412898,
    "name": "Coop Prix Valnesfjord",
    "chain": "Coop Prix",
    "chainId": "coop-prix",
    "storeType": "discount",
    "location": {
      "lat": 67.2999018,
      "lng": 15.1842915
    },
    "address": "",
    "city": "",
    "postcode": "",
    "openingHours": "Mo-Fr 07:00-23:00, Sa 08:00-22:00",
    "wheelchair": "",
    "phone": "",
    "website": "",
    "organic": ""
  },
  {
    "id": "rema-36604250",
    "osmId": 36604250,
    "name": "Rema 1000 Knarvik",
    "chain": "Rema 1000",
    "chainId": "rema",
    "storeType": "discount",
    "location": {
      "lat": 60.5459871,
      "lng": 5.2863643
    },
    "address": "",
    "city": "",
    "postcode": "",
    "openingHours": "Mo-Sa 07:00-23:00",
    "wheelchair": "yes",
    "phone": "+47 56357066",
    "website": "",
    "organic": ""
  },
  {
    "id": "bunnpris-91240966",
    "osmId": 91240966,
    "name": "Bunnpris Kampen",
    "chain": "Bunnpris",
    "chainId": "bunnpris",
    "storeType": "discount",
    "location": {
      "lat": 59.913976,
      "lng": 10.781236
    },
    "address": "",
    "city": "",
    "postcode": "",
    "openingHours": "Mo-Fr 07:00-23:00, Sa-Su 08:00-23:00",
    "wheelchair": "",
    "phone": "+47 23240540",
    "website": "",
    "organic": ""
  },
  {
    "id": "rema-148322126",
    "osmId": 148322126,
    "name": "Rema 1000 Moholt",
    "chain": "Rema 1000",
    "chainId": "rema",
    "storeType": "discount",
    "location": {
      "lat": 63.409949,
      "lng": 10.438926
    },
    "address": "",
    "city": "",
    "postcode": "",
    "openingHours": "Mo-Sa 07:00-23:00",
    "wheelchair": "yes",
    "phone": "+47 73822700",
    "website": "",
    "organic": ""
  },
  {
    "id": "bunnpris-155590469",
    "osmId": 155590469,
    "name": "Bunnpris Samfundet",
    "chain": "Bunnpris",
    "chainId": "bunnpris",
    "storeType": "discount",
    "location": {
      "lat": 63.422227,
      "lng": 10.399218
    },
    "address": "",
    "city": "",
    "postcode": "",
    "openingHours": "Mo-Fr 08:00-23:00, Sa 09:00-21:00",
    "wheelchair": "",
    "phone": "+47 73524370",
    "website": "",
    "organic": ""
  },
  {
    "id": "spar-160253309",
    "osmId": 160253309,
    "name": "Spar Hegra",
    "chain": "Spar",
    "chainId": "spar",
    "storeType": "convenience",
    "location": {
      "lat": 63.4634099,
      "lng": 11.1139357
    },
    "address": "",
    "city": "",
    "postcode": "",
    "openingHours": "Mo-Fr 08:00-21:00, Sa 09:00-20:00",
    "wheelchair": "",
    "phone": "+47 74802223",
    "website": "",
    "organic": ""
  },
  {
    "id": "meny-168842710",
    "osmId": 168842710,
    "name": "Meny Moholt",
    "chain": "Meny",
    "chainId": "meny",
    "storeType": "supermarket",
    "location": {
      "lat": 63.4097165,
      "lng": 10.4439421
    },
    "address": "",
    "city": "",
    "postcode": "",
    "openingHours": "Mo-Fr 08:00-22:00, Sa 08:00-20:00",
    "wheelchair": "",
    "phone": "+47 73820200",
    "website": "",
    "organic": ""
  },
  {
    "id": "bunnpris-168842713",
    "osmId": 168842713,
    "name": "Bunnpris Moholt",
    "chain": "Bunnpris",
    "chainId": "bunnpris",
    "storeType": "discount",
    "location": {
      "lat": 63.412733,
      "lng": 10.431544
    },
    "address": "",
    "city": "",
    "postcode": "",
    "openingHours": "Mo-Fr 08:00-23:00, Sa 09:00-21:00, Su 10:00-22:00",
    "wheelchair": "",
    "phone": "+47 73943070;+47 90830154",
    "website": "",
    "organic": ""
  },
  {
    "id": "joker-171451018",
    "osmId": 171451018,
    "name": "Joker Brønndalen",
    "chain": "Joker",
    "chainId": "joker",
    "storeType": "convenience",
    "location": {
      "lat": 60.373477,
      "lng": 5.221455
    },
    "address": "",
    "city": "",
    "postcode": "",
    "openingHours": "Mo-Fr 10:00-20:00, Sa 09:00-18:00",
    "wheelchair": "",
    "phone": "+47 55937010",
    "website": "",
    "organic": ""
  },
  {
    "id": "coop-mega-175870526",
    "osmId": 175870526,
    "name": "Coop Mega Nardo",
    "chain": "Coop Mega",
    "chainId": "coop-mega",
    "storeType": "supermarket",
    "location": {
      "lat": 63.402878,
      "lng": 10.42728
    },
    "address": "",
    "city": "",
    "postcode": "",
    "openingHours": "Mo-Fr 08:00-23:00, Sa 09:00-21:00",
    "wheelchair": "yes",
    "phone": "",
    "website": "",
    "organic": ""
  },
  {
    "id": "extra-180569404",
    "osmId": 180569404,
    "name": "Extra Auli senter",
    "chain": "Extra",
    "chainId": "extra",
    "storeType": "discount",
    "location": {
      "lat": 60.0341636,
      "lng": 11.351264
    },
    "address": "",
    "city": "",
    "postcode": "",
    "openingHours": "Mo-Sa 07:00-23:00",
    "wheelchair": "",
    "phone": "",
    "website": "",
    "organic": ""
  },
  {
    "id": "coop-marked-188758666",
    "osmId": 188758666,
    "name": "Coop Marked Storås",
    "chain": "Coop Marked",
    "chainId": "coop-marked",
    "storeType": "convenience",
    "location": {
      "lat": 63.0963352,
      "lng": 9.5996286
    },
    "address": "",
    "city": "",
    "postcode": "",
    "openingHours": "Mo-Fr 07:00-20:00, Sa 09:00-18:00",
    "wheelchair": "",
    "phone": "",
    "website": "",
    "organic": ""
  },
  {
    "id": "rema-190596261",
    "osmId": 190596261,
    "name": "Rema 1000 Berkåk",
    "chain": "Rema 1000",
    "chainId": "rema",
    "storeType": "discount",
    "location": {
      "lat": 62.828678,
      "lng": 10.008779
    },
    "address": "",
    "city": "",
    "postcode": "",
    "openingHours": "Mo-Sa 07:00-23:00",
    "wheelchair": "",
    "phone": "+47 72427200",
    "website": "",
    "organic": ""
  },
  {
    "id": "extra-190596267",
    "osmId": 190596267,
    "name": "Extra Berkåk",
    "chain": "Extra",
    "chainId": "extra",
    "storeType": "discount",
    "location": {
      "lat": 62.82893,
      "lng": 10.011479
    },
    "address": "",
    "city": "",
    "postcode": "",
    "openingHours": "Mo-Sa 07:00-23:00",
    "wheelchair": "",
    "phone": "",
    "website": "",
    "organic": ""
  },
  {
    "id": "coop-marked-190844179",
    "osmId": 190844179,
    "name": "Coop Marked Kvikne",
    "chain": "Coop Marked",
    "chainId": "coop-marked",
    "storeType": "convenience",
    "location": {
      "lat": 62.565765,
      "lng": 10.323161
    },
    "address": "",
    "city": "",
    "postcode": "",
    "openingHours": "Mo-Sa 06:00-24:00",
    "wheelchair": "",
    "phone": "",
    "website": "",
    "organic": ""
  },
  {
    "id": "rema-193629076",
    "osmId": 193629076,
    "name": "Rema 1000 Stavset",
    "chain": "Rema 1000",
    "chainId": "rema",
    "storeType": "discount",
    "location": {
      "lat": 63.387395,
      "lng": 10.330293
    },
    "address": "",
    "city": "",
    "postcode": "",
    "openingHours": "Mo-Sa 07:00-23:00",
    "wheelchair": "yes",
    "phone": "+47 72560010",
    "website": "",
    "organic": ""
  },
  {
    "id": "joker-196349818",
    "osmId": 196349818,
    "name": "Joker Kaien Brattholmen",
    "chain": "Joker",
    "chainId": "joker",
    "storeType": "convenience",
    "location": {
      "lat": 60.349801,
      "lng": 5.161185
    },
    "address": "",
    "city": "",
    "postcode": "",
    "openingHours": "Mo-Fr 08:00-20:00, Sa 09:00-18:00",
    "wheelchair": "",
    "phone": "+47 56322905",
    "website": "",
    "organic": ""
  },
  {
    "id": "rema-197492272",
    "osmId": 197492272,
    "name": "Rema 1000 Drotningsvik",
    "chain": "Rema 1000",
    "chainId": "rema",
    "storeType": "discount",
    "location": {
      "lat": 60.371971,
      "lng": 5.180103
    },
    "address": "",
    "city": "",
    "postcode": "",
    "openingHours": "Mo-Sa 07:00-23:00",
    "wheelchair": "",
    "phone": "+47 55506440",
    "website": "https://www.rema.no/",
    "organic": ""
  },
  {
    "id": "meny-198304498",
    "osmId": 198304498,
    "name": "Meny Grimstad",
    "chain": "Meny",
    "chainId": "meny",
    "storeType": "supermarket",
    "location": {
      "lat": 58.3352737,
      "lng": 8.5903532
    },
    "address": "",
    "city": "",
    "postcode": "",
    "openingHours": "Mo-Fr 08:00-22:00, Sa 08:00-20:00",
    "wheelchair": "yes",
    "phone": "+47 37252770",
    "website": "",
    "organic": ""
  },
  {
    "id": "joker-203174155",
    "osmId": 203174155,
    "name": "Joker Rennebu",
    "chain": "Joker",
    "chainId": "joker",
    "storeType": "convenience",
    "location": {
      "lat": 62.87627,
      "lng": 9.840504
    },
    "address": "",
    "city": "",
    "postcode": "",
    "openingHours": "Mo-Sa 00:00-24:00",
    "wheelchair": "",
    "phone": "+47 72426550",
    "website": "",
    "organic": ""
  },
  {
    "id": "coop-prix-210259349",
    "osmId": 210259349,
    "name": "Coop Prix Olderdalen",
    "chain": "Coop Prix",
    "chainId": "coop-prix",
    "storeType": "discount",
    "location": {
      "lat": 63.421527,
      "lng": 10.526633
    },
    "address": "",
    "city": "",
    "postcode": "",
    "openingHours": "Mo-Sa 07:00-23:00",
    "wheelchair": "",
    "phone": "",
    "website": "",
    "organic": ""
  },
  {
    "id": "rema-211168452",
    "osmId": 211168452,
    "name": "Rema 1000 Ranheim",
    "chain": "Rema 1000",
    "chainId": "rema",
    "storeType": "discount",
    "location": {
      "lat": 63.421105,
      "lng": 10.534483
    },
    "address": "",
    "city": "",
    "postcode": "",
    "openingHours": "Mo-Sa 07:00-23:00",
    "wheelchair": "",
    "phone": "+47 73570230",
    "website": "",
    "organic": ""
  },
  {
    "id": "spar-212923631",
    "osmId": 212923631,
    "name": "Spar Ekholt",
    "chain": "Spar",
    "chainId": "spar",
    "storeType": "convenience",
    "location": {
      "lat": 59.4125741,
      "lng": 10.6611927
    },
    "address": "",
    "city": "",
    "postcode": "",
    "openingHours": "Mo-Fr 08:00-21:00, Sa 09:00-20:00",
    "wheelchair": "",
    "phone": "+47 69265920",
    "website": "",
    "organic": ""
  },
  {
    "id": "kiwi-213387069",
    "osmId": 213387069,
    "name": "Kiwi Son",
    "chain": "Kiwi",
    "chainId": "kiwi",
    "storeType": "discount",
    "location": {
      "lat": 59.525981,
      "lng": 10.689079
    },
    "address": "",
    "city": "",
    "postcode": "",
    "openingHours": "Mo-Fr 08:00-22:00, Sa 08:00-21:00",
    "wheelchair": "yes",
    "phone": "+47 64959370",
    "website": "",
    "organic": ""
  },
  {
    "id": "rema-213581529",
    "osmId": 213581529,
    "name": "Rema 1000 Kanalen",
    "chain": "Rema 1000",
    "chainId": "rema",
    "storeType": "discount",
    "location": {
      "lat": 59.434437,
      "lng": 10.652014
    },
    "address": "",
    "city": "",
    "postcode": "",
    "openingHours": "Mo-Sa 07:00-23:00",
    "wheelchair": "",
    "phone": "+47 69273350",
    "website": "",
    "organic": ""
  },
  {
    "id": "rema-215091463",
    "osmId": 215091463,
    "name": "Rema 1000 Mosseskogen",
    "chain": "Rema 1000",
    "chainId": "rema",
    "storeType": "discount",
    "location": {
      "lat": 59.4455461,
      "lng": 10.683634
    },
    "address": "",
    "city": "",
    "postcode": "",
    "openingHours": "Mo-Sa 07:00-23:00",
    "wheelchair": "yes",
    "phone": "+47 69240830",
    "website": "",
    "organic": ""
  },
  {
    "id": "kiwi-215091726",
    "osmId": 215091726,
    "name": "Kiwi Tigerplassen",
    "chain": "Kiwi",
    "chainId": "kiwi",
    "storeType": "discount",
    "location": {
      "lat": 59.4469049,
      "lng": 10.6856855
    },
    "address": "",
    "city": "",
    "postcode": "",
    "openingHours": "Mo-Sa 07:00-23:00",
    "wheelchair": "limited",
    "phone": "+47 69249433",
    "website": "",
    "organic": ""
  },
  {
    "id": "kiwi-220636585",
    "osmId": 220636585,
    "name": "Kiwi Moholt",
    "chain": "Kiwi",
    "chainId": "kiwi",
    "storeType": "discount",
    "location": {
      "lat": 63.4103851,
      "lng": 10.4414846
    },
    "address": "",
    "city": "",
    "postcode": "",
    "openingHours": "Mo-Sa 07:00-23:00, Su 10:00-22:00",
    "wheelchair": "yes",
    "phone": "+47 73943052",
    "website": "",
    "organic": ""
  },
  {
    "id": "kiwi-225589553",
    "osmId": 225589553,
    "name": "Kiwi Høyden",
    "chain": "Kiwi",
    "chainId": "kiwi",
    "storeType": "discount",
    "location": {
      "lat": 59.419345,
      "lng": 10.683017
    },
    "address": "",
    "city": "",
    "postcode": "",
    "openingHours": "Mo-Sa 07:00-23:00",
    "wheelchair": "yes",
    "phone": "+47 69265200",
    "website": "",
    "organic": ""
  },
  {
    "id": "coop-mega-226059642",
    "osmId": 226059642,
    "name": "Coop Mega Valentinlyst",
    "chain": "Coop Mega",
    "chainId": "coop-mega",
    "storeType": "supermarket",
    "location": {
      "lat": 63.4245,
      "lng": 10.4417
    },
    "address": "",
    "city": "",
    "postcode": "",
    "openingHours": "Mo-Fr 09:00-22:00, Sa 09:00-20:00",
    "wheelchair": "yes",
    "phone": "",
    "website": "",
    "organic": ""
  },
  {
    "id": "rema-226059674",
    "osmId": 226059674,
    "name": "Rema 1000 Bromstad",
    "chain": "Rema 1000",
    "chainId": "rema",
    "storeType": "discount",
    "location": {
      "lat": 63.430991,
      "lng": 10.450936
    },
    "address": "",
    "city": "",
    "postcode": "",
    "openingHours": "Mo-Sa 07:00-23:00, Su 11:00-22:00",
    "wheelchair": "yes",
    "phone": "+47 73905411",
    "website": "https://butikk.rema.no/REMA+1000+Bromstad/445451",
    "organic": ""
  },
  {
    "id": "rema-243081589",
    "osmId": 243081589,
    "name": "Rema 1000 Jørpeland",
    "chain": "Rema 1000",
    "chainId": "rema",
    "storeType": "discount",
    "location": {
      "lat": 59.0171247,
      "lng": 6.0381738
    },
    "address": "",
    "city": "",
    "postcode": "",
    "openingHours": "Mo-Sa 07:00-23:00",
    "wheelchair": "",
    "phone": "+47 51749252",
    "website": "",
    "organic": ""
  },
  {
    "id": "kiwi-243528356",
    "osmId": 243528356,
    "name": "Kiwi Kringsjå",
    "chain": "Kiwi",
    "chainId": "kiwi",
    "storeType": "discount",
    "location": {
      "lat": 59.9639604,
      "lng": 10.7330634
    },
    "address": "",
    "city": "",
    "postcode": "",
    "openingHours": "Mo-Sa 07:00-23:00",
    "wheelchair": "yes",
    "phone": "+47 22589442",
    "website": "",
    "organic": ""
  },
  {
    "id": "rema-245395441",
    "osmId": 245395441,
    "name": "Rema 1000 Byåsen",
    "chain": "Rema 1000",
    "chainId": "rema",
    "storeType": "discount",
    "location": {
      "lat": 63.418045,
      "lng": 10.352454
    },
    "address": "",
    "city": "",
    "postcode": "",
    "openingHours": "Mo-Sa 07:00-23:00",
    "wheelchair": "",
    "phone": "+47 72560058",
    "website": "",
    "organic": ""
  },
  {
    "id": "bunnpris-246519042",
    "osmId": 246519042,
    "name": "Bunnpris Rydningen",
    "chain": "Bunnpris",
    "chainId": "bunnpris",
    "storeType": "discount",
    "location": {
      "lat": 63.387628,
      "lng": 10.352908
    },
    "address": "",
    "city": "",
    "postcode": "",
    "openingHours": "Mo-Fr 08:00-22:00, Sa 09:00-21:00",
    "wheelchair": "",
    "phone": "+47 72568440",
    "website": "https://bunnpris.no/butikker/bunnpris-rydningen",
    "organic": ""
  },
  {
    "id": "extra-246705060",
    "osmId": 246705060,
    "name": "Extra Moholt",
    "chain": "Extra",
    "chainId": "extra",
    "storeType": "discount",
    "location": {
      "lat": 63.409337,
      "lng": 10.444628
    },
    "address": "",
    "city": "",
    "postcode": "",
    "openingHours": "Mo-Sa 07:00-23:00",
    "wheelchair": "",
    "phone": "",
    "website": "",
    "organic": ""
  },
  {
    "id": "rema-246875581",
    "osmId": 246875581,
    "name": "Rema 1000 Ladetorget",
    "chain": "Rema 1000",
    "chainId": "rema",
    "storeType": "discount",
    "location": {
      "lat": 63.4477148,
      "lng": 10.4451606
    },
    "address": "",
    "city": "",
    "postcode": "",
    "openingHours": "Mo-Sa 07:00-23:00",
    "wheelchair": "yes",
    "phone": "+47 73900622",
    "website": "",
    "organic": ""
  },
  {
    "id": "bunnpris-247785800",
    "osmId": 247785800,
    "name": "Bunnpris Årnes",
    "chain": "Bunnpris",
    "chainId": "bunnpris",
    "storeType": "discount",
    "location": {
      "lat": 60.123191,
      "lng": 11.468177
    },
    "address": "",
    "city": "",
    "postcode": "",
    "openingHours": "Mo-Fr 07:00-22:00, Sa 08:00-21:00",
    "wheelchair": "",
    "phone": "+47 63901233",
    "website": "",
    "organic": ""
  },
  {
    "id": "coop-mega-247786072",
    "osmId": 247786072,
    "name": "Coop Mega Årnes",
    "chain": "Coop Mega",
    "chainId": "coop-mega",
    "storeType": "supermarket",
    "location": {
      "lat": 60.1226664,
      "lng": 11.4687073
    },
    "address": "",
    "city": "",
    "postcode": "",
    "openingHours": "Mo-Fr 08:00-22:00, Sa 09:00-20:00",
    "wheelchair": "",
    "phone": "",
    "website": "",
    "organic": ""
  },
  {
    "id": "kiwi-247931924",
    "osmId": 247931924,
    "name": "Kiwi Dombås",
    "chain": "Kiwi",
    "chainId": "kiwi",
    "storeType": "discount",
    "location": {
      "lat": 62.07443,
      "lng": 9.127469
    },
    "address": "",
    "city": "",
    "postcode": "",
    "openingHours": "Mo-Fr 07:00-23:00, Sa 07:00-21:00",
    "wheelchair": "",
    "phone": "+47 61241287",
    "website": "",
    "organic": ""
  },
  {
    "id": "extra-248090171",
    "osmId": 248090171,
    "name": "Extra Dombås",
    "chain": "Extra",
    "chainId": "extra",
    "storeType": "discount",
    "location": {
      "lat": 62.073358,
      "lng": 9.126353
    },
    "address": "",
    "city": "",
    "postcode": "",
    "openingHours": "Mo-Fr 07:00-23:00, Sa 08:00-21:00",
    "wheelchair": "",
    "phone": "",
    "website": "",
    "organic": ""
  },
  {
    "id": "coop-prix-249229474",
    "osmId": 249229474,
    "name": "Coop Prix Kvål",
    "chain": "Coop Prix",
    "chainId": "coop-prix",
    "storeType": "discount",
    "location": {
      "lat": 63.2313275,
      "lng": 10.2806593
    },
    "address": "",
    "city": "",
    "postcode": "",
    "openingHours": "Mo-Fr 07:00-22:00, Sa 08:00-21:00",
    "wheelchair": "yes",
    "phone": "",
    "website": "",
    "organic": ""
  },
  {
    "id": "coop-prix-249229496",
    "osmId": 249229496,
    "name": "Coop Prix Ler",
    "chain": "Coop Prix",
    "chainId": "coop-prix",
    "storeType": "discount",
    "location": {
      "lat": 63.197734,
      "lng": 10.300167
    },
    "address": "",
    "city": "",
    "postcode": "",
    "openingHours": "Mo-Fr 07:00-23:00, Sa 08:00-21:00, Su 10:00-22:00",
    "wheelchair": "",
    "phone": "",
    "website": "",
    "organic": ""
  },
  {
    "id": "kiwi-249229561",
    "osmId": 249229561,
    "name": "Kiwi Støren",
    "chain": "Kiwi",
    "chainId": "kiwi",
    "storeType": "discount",
    "location": {
      "lat": 63.035632,
      "lng": 10.292756
    },
    "address": "",
    "city": "",
    "postcode": "",
    "openingHours": "Mo-Fr 07:00-23:00, Sa 09:00-21:00",
    "wheelchair": "",
    "phone": "+47 72431822",
    "website": "",
    "organic": ""
  },
  {
    "id": "coop-prix-249655010",
    "osmId": 249655010,
    "name": "Coop Prix Lundamo",
    "chain": "Coop Prix",
    "chainId": "coop-prix",
    "storeType": "discount",
    "location": {
      "lat": 63.152233,
      "lng": 10.282121
    },
    "address": "",
    "city": "",
    "postcode": "",
    "openingHours": "Mo-Fr 07:00-23:00, Sa 08:00-21:00",
    "wheelchair": "",
    "phone": "",
    "website": "",
    "organic": ""
  },
  {
    "id": "coop-marked-249733267",
    "osmId": 249733267,
    "name": "Coop Marked Glåmos",
    "chain": "Coop Marked",
    "chainId": "coop-marked",
    "storeType": "convenience",
    "location": {
      "lat": 62.673751,
      "lng": 11.418868
    },
    "address": "",
    "city": "",
    "postcode": "",
    "openingHours": "Mo-Fr 09:00-20:00, Sa 09:00-18:00",
    "wheelchair": "",
    "phone": "",
    "website": "",
    "organic": ""
  },
  {
    "id": "rema-251710249",
    "osmId": 251710249,
    "name": "Rema 1000 Jessheim",
    "chain": "Rema 1000",
    "chainId": "rema",
    "storeType": "discount",
    "location": {
      "lat": 60.1425718,
      "lng": 11.1740993
    },
    "address": "",
    "city": "",
    "postcode": "",
    "openingHours": "Mo-Fr 08:00-21:00, Sa 09:00-19:00",
    "wheelchair": "",
    "phone": "+47 63971684",
    "website": "",
    "organic": ""
  },
  {
    "id": "extra-251712180",
    "osmId": 251712180,
    "name": "Extra Neskollen",
    "chain": "Extra",
    "chainId": "extra",
    "storeType": "discount",
    "location": {
      "lat": 60.126388,
      "lng": 11.339736
    },
    "address": "",
    "city": "",
    "postcode": "",
    "openingHours": "Mo-Sa 07:00-23:00",
    "wheelchair": "",
    "phone": "",
    "website": "",
    "organic": ""
  },
  {
    "id": "extra-252288149",
    "osmId": 252288149,
    "name": "Extra Lone",
    "chain": "Extra",
    "chainId": "extra",
    "storeType": "discount",
    "location": {
      "lat": 60.374499,
      "lng": 5.457635
    },
    "address": "",
    "city": "",
    "postcode": "",
    "openingHours": "Mo-Sa 07:00-23:00",
    "wheelchair": "yes",
    "phone": "",
    "website": "",
    "organic": ""
  },
  {
    "id": "spar-252288150",
    "osmId": 252288150,
    "name": "Spar Lone",
    "chain": "Spar",
    "chainId": "spar",
    "storeType": "convenience",
    "location": {
      "lat": 60.3754826,
      "lng": 5.4569214
    },
    "address": "",
    "city": "",
    "postcode": "",
    "openingHours": "Mo-Fr 06:00-23:00, Sa 08:00-21:00",
    "wheelchair": "",
    "phone": "+47 55240018",
    "website": "",
    "organic": ""
  },
  {
    "id": "extra-252866747",
    "osmId": 252866747,
    "name": "Extra Rissa",
    "chain": "Extra",
    "chainId": "extra",
    "storeType": "discount",
    "location": {
      "lat": 63.584257,
      "lng": 9.961223
    },
    "address": "",
    "city": "",
    "postcode": "",
    "openingHours": "Mo-Sa 07:00-23:00",
    "wheelchair": "yes",
    "phone": "",
    "website": "",
    "organic": ""
  },
  {
    "id": "joker-253699917",
    "osmId": 253699917,
    "name": "Joker Skogbygda",
    "chain": "Joker",
    "chainId": "joker",
    "storeType": "convenience",
    "location": {
      "lat": 60.228975,
      "lng": 11.511479
    },
    "address": "",
    "city": "",
    "postcode": "",
    "openingHours": "Mo-Fr 09:00-20:00, Sa 10:00-18:00",
    "wheelchair": "",
    "phone": "+47 92678928",
    "website": "",
    "organic": ""
  },
  {
    "id": "bunnpris-255113226",
    "osmId": 255113226,
    "name": "Bunnpris Buran",
    "chain": "Bunnpris",
    "chainId": "bunnpris",
    "storeType": "discount",
    "location": {
      "lat": 63.436523,
      "lng": 10.424281
    },
    "address": "",
    "city": "",
    "postcode": "",
    "openingHours": "Mo-Fr 08:00-23:00, Sa 09:00-21:00",
    "wheelchair": "yes",
    "phone": "+47 73841390",
    "website": "",
    "organic": ""
  },
  {
    "id": "coop-prix-255113232",
    "osmId": 255113232,
    "name": "Coop Prix Persaunet",
    "chain": "Coop Prix",
    "chainId": "coop-prix",
    "storeType": "discount",
    "location": {
      "lat": 63.433113,
      "lng": 10.44723
    },
    "address": "",
    "city": "",
    "postcode": "",
    "openingHours": "Mo-Fr 08:00-23:00, Sa 09:00-23:00",
    "wheelchair": "",
    "phone": "",
    "website": "",
    "organic": ""
  },
  {
    "id": "extra-255242394",
    "osmId": 255242394,
    "name": "Extra Buvika",
    "chain": "Extra",
    "chainId": "extra",
    "storeType": "discount",
    "location": {
      "lat": 63.308011,
      "lng": 10.175215
    },
    "address": "",
    "city": "",
    "postcode": "",
    "openingHours": "Mo-Sa 07:00-23:00",
    "wheelchair": "",
    "phone": "",
    "website": "",
    "organic": ""
  },
  {
    "id": "extra-255523974",
    "osmId": 255523974,
    "name": "Extra Børsa",
    "chain": "Extra",
    "chainId": "extra",
    "storeType": "discount",
    "location": {
      "lat": 63.323248,
      "lng": 10.065375
    },
    "address": "",
    "city": "",
    "postcode": "",
    "openingHours": "Mo-Sa 07:00-23:00, Su 10:00-22:00",
    "wheelchair": "",
    "phone": "",
    "website": "",
    "organic": ""
  },
  {
    "id": "extra-255927151",
    "osmId": 255927151,
    "name": "Extra Mortensrud",
    "chain": "Extra",
    "chainId": "extra",
    "storeType": "discount",
    "location": {
      "lat": 59.848486,
      "lng": 10.829545
    },
    "address": "",
    "city": "",
    "postcode": "",
    "openingHours": "Mo-Sa 07:00-23:00",
    "wheelchair": "",
    "phone": "",
    "website": "",
    "organic": ""
  },
  {
    "id": "coop-prix-256233960",
    "osmId": 256233960,
    "name": "Coop Prix Stjørdal",
    "chain": "Coop Prix",
    "chainId": "coop-prix",
    "storeType": "discount",
    "location": {
      "lat": 63.466718,
      "lng": 10.916307
    },
    "address": "",
    "city": "",
    "postcode": "",
    "openingHours": "Mo-Fr 07:00-23:00, Sa 08:00-21:00",
    "wheelchair": "",
    "phone": "",
    "website": "",
    "organic": ""
  },
  {
    "id": "kiwi-258171007",
    "osmId": 258171007,
    "name": "Kiwi Godvik",
    "chain": "Kiwi",
    "chainId": "kiwi",
    "storeType": "discount",
    "location": {
      "lat": 60.370839,
      "lng": 5.191805
    },
    "address": "",
    "city": "",
    "postcode": "",
    "openingHours": "Mo-Sa 07:00-23:00",
    "wheelchair": "limited",
    "phone": "+47 55500952",
    "website": "https://kiwi.no/",
    "organic": ""
  },
  {
    "id": "rema-258171008",
    "osmId": 258171008,
    "name": "Rema 1000 Godvik",
    "chain": "Rema 1000",
    "chainId": "rema",
    "storeType": "discount",
    "location": {
      "lat": 60.370045,
      "lng": 5.192887
    },
    "address": "",
    "city": "",
    "postcode": "",
    "openingHours": "Mo-Sa 07:00-23:00",
    "wheelchair": "",
    "phone": "+47 55268740",
    "website": "",
    "organic": ""
  },
  {
    "id": "kiwi-258417885",
    "osmId": 258417885,
    "name": "Kiwi Hetlevikåsen",
    "chain": "Kiwi",
    "chainId": "kiwi",
    "storeType": "discount",
    "location": {
      "lat": 60.35049,
      "lng": 5.227692
    },
    "address": "",
    "city": "",
    "postcode": "",
    "openingHours": "Mo-Sa 07:00-23:00",
    "wheelchair": "limited",
    "phone": "+47 55269900",
    "website": "https://kiwi.no/",
    "organic": ""
  },
  {
    "id": "rema-259723046",
    "osmId": 259723046,
    "name": "Rema 1000 Kleppestø",
    "chain": "Rema 1000",
    "chainId": "rema",
    "storeType": "discount",
    "location": {
      "lat": 60.406272,
      "lng": 5.219544
    },
    "address": "",
    "city": "",
    "postcode": "",
    "openingHours": "Mo-Sa 07:00-23:00",
    "wheelchair": "",
    "phone": "+47 56156640",
    "website": "",
    "organic": ""
  },
  {
    "id": "coop-prix-259769228",
    "osmId": 259769228,
    "name": "Coop Prix Hovin",
    "chain": "Coop Prix",
    "chainId": "coop-prix",
    "storeType": "discount",
    "location": {
      "lat": 63.105189,
      "lng": 10.225198
    },
    "address": "",
    "city": "",
    "postcode": "",
    "openingHours": "Mo-Fr 07:00-23:00, Sa 08:00-21:00",
    "wheelchair": "yes",
    "phone": "",
    "website": "",
    "organic": ""
  },
  {
    "id": "bunnpris-260303215",
    "osmId": 260303215,
    "name": "Bunnpris Stubban",
    "chain": "Bunnpris",
    "chainId": "bunnpris",
    "storeType": "discount",
    "location": {
      "lat": 63.391275,
      "lng": 10.42075
    },
    "address": "",
    "city": "",
    "postcode": "",
    "openingHours": "Mo-Fr 08:00-22:00, Sa 09:00-21:00",
    "wheelchair": "",
    "phone": "+47 73966120",
    "website": "",
    "organic": ""
  },
  {
    "id": "bunnpris-261095981",
    "osmId": 261095981,
    "name": "Bunnpris Lambertseter",
    "chain": "Bunnpris",
    "chainId": "bunnpris",
    "storeType": "discount",
    "location": {
      "lat": 59.876149,
      "lng": 10.818508
    },
    "address": "",
    "city": "",
    "postcode": "",
    "openingHours": "Mo-Fr 08:00-23:00, Sa-Su 09:00-21:00",
    "wheelchair": "yes",
    "phone": "+47 22285519",
    "website": "",
    "organic": ""
  },
  {
    "id": "kiwi-261124640",
    "osmId": 261124640,
    "name": "Kiwi Lambertseter",
    "chain": "Kiwi",
    "chainId": "kiwi",
    "storeType": "discount",
    "location": {
      "lat": 59.870045,
      "lng": 10.819918
    },
    "address": "",
    "city": "",
    "postcode": "",
    "openingHours": "Mo-Sa 07:00-23:00",
    "wheelchair": "",
    "phone": "+47 23382070",
    "website": "",
    "organic": ""
  },
  {
    "id": "meny-261583580",
    "osmId": 261583580,
    "name": "Meny Bryn",
    "chain": "Meny",
    "chainId": "meny",
    "storeType": "supermarket",
    "location": {
      "lat": 59.903159,
      "lng": 10.821787
    },
    "address": "",
    "city": "",
    "postcode": "",
    "openingHours": "Mo-Fr 08:00-22:00, Sa 09:00-20:00",
    "wheelchair": "yes",
    "phone": "+47 22757900",
    "website": "https://meny.no/finn-butikk/meny-bryn/",
    "organic": ""
  },
  {
    "id": "rema-261734292",
    "osmId": 261734292,
    "name": "Rema 1000 Mellombølgen",
    "chain": "Rema 1000",
    "chainId": "rema",
    "storeType": "discount",
    "location": {
      "lat": 59.866218,
      "lng": 10.82203
    },
    "address": "",
    "city": "",
    "postcode": "",
    "openingHours": "Mo-Sa 07:00-23:00",
    "wheelchair": "yes",
    "phone": "+47 22742446",
    "website": "",
    "organic": ""
  },
  {
    "id": "matkroken-264098039",
    "osmId": 264098039,
    "name": "Matkroken Todalen",
    "chain": "Matkroken",
    "chainId": "matkroken",
    "storeType": "convenience",
    "location": {
      "lat": 62.8200423,
      "lng": 8.7035338
    },
    "address": "",
    "city": "",
    "postcode": "",
    "openingHours": "Mo-Fr 09:00-18:00, Sa 09:30-16:00, Su 16:00-18:00",
    "wheelchair": "",
    "phone": "",
    "website": "",
    "organic": ""
  },
  {
    "id": "kiwi-264121919",
    "osmId": 264121919,
    "name": "Kiwi Finstad",
    "chain": "Kiwi",
    "chainId": "kiwi",
    "storeType": "discount",
    "location": {
      "lat": 59.717372,
      "lng": 10.816058
    },
    "address": "",
    "city": "",
    "postcode": "",
    "openingHours": "Mo-Sa 07:00-23:00",
    "wheelchair": "yes",
    "phone": "+47 64871933",
    "website": "",
    "organic": ""
  },
  {
    "id": "kiwi-264768990",
    "osmId": 264768990,
    "name": "Kiwi Karlsrud",
    "chain": "Kiwi",
    "chainId": "kiwi",
    "storeType": "discount",
    "location": {
      "lat": 59.8800582,
      "lng": 10.8040994
    },
    "address": "",
    "city": "",
    "postcode": "",
    "openingHours": "Mo-Sa 07:00-23:00",
    "wheelchair": "yes",
    "phone": "+47 22745798",
    "website": "",
    "organic": ""
  },
  {
    "id": "rema-264768991",
    "osmId": 264768991,
    "name": "Rema 1000 Sandstuveien",
    "chain": "Rema 1000",
    "chainId": "rema",
    "storeType": "discount",
    "location": {
      "lat": 59.8876992,
      "lng": 10.805681
    },
    "address": "",
    "city": "",
    "postcode": "",
    "openingHours": "Mo-Sa 07:00-23:00",
    "wheelchair": "",
    "phone": "+47 22614190",
    "website": "",
    "organic": ""
  },
  {
    "id": "meny-266039291",
    "osmId": 266039291,
    "name": "Meny Aksdal",
    "chain": "Meny",
    "chainId": "meny",
    "storeType": "supermarket",
    "location": {
      "lat": 59.4226068,
      "lng": 5.4448542
    },
    "address": "",
    "city": "",
    "postcode": "",
    "openingHours": "Mo-Fr 07:00-22:00, Sa 07:00-20:00",
    "wheelchair": "yes",
    "phone": "+47 52754949",
    "website": "",
    "organic": ""
  },
  {
    "id": "rema-266563150",
    "osmId": 266563150,
    "name": "Rema 1000 Sæterkrysset",
    "chain": "Rema 1000",
    "chainId": "rema",
    "storeType": "discount",
    "location": {
      "lat": 59.860465,
      "lng": 10.801512
    },
    "address": "",
    "city": "",
    "postcode": "",
    "openingHours": "Mo-Sa 07:00-23:00",
    "wheelchair": "",
    "phone": "+47 22306600",
    "website": "",
    "organic": ""
  },
  {
    "id": "extra-266867271",
    "osmId": 266867271,
    "name": "Extra Nyborg",
    "chain": "Extra",
    "chainId": "extra",
    "storeType": "discount",
    "location": {
      "lat": 60.473556,
      "lng": 5.335932
    },
    "address": "",
    "city": "",
    "postcode": "",
    "openingHours": "Mo-Sa 06:30-24:00, Su 09:00-21:00",
    "wheelchair": "",
    "phone": "",
    "website": "",
    "organic": ""
  },
  {
    "id": "kiwi-268660276",
    "osmId": 268660276,
    "name": "Kiwi Bryne torg",
    "chain": "Kiwi",
    "chainId": "kiwi",
    "storeType": "discount",
    "location": {
      "lat": 58.734259,
      "lng": 5.647723
    },
    "address": "",
    "city": "",
    "postcode": "",
    "openingHours": "Mo-Sa 07:00-23:00",
    "wheelchair": "",
    "phone": "+47 51481650",
    "website": "",
    "organic": ""
  },
  {
    "id": "extra-270588575",
    "osmId": 270588575,
    "name": "Extra Sistranda",
    "chain": "Extra",
    "chainId": "extra",
    "storeType": "discount",
    "location": {
      "lat": 63.735435,
      "lng": 8.833377
    },
    "address": "",
    "city": "",
    "postcode": "",
    "openingHours": "Mo-Sa 07:00-23:00",
    "wheelchair": "",
    "phone": "",
    "website": "",
    "organic": ""
  },
  {
    "id": "coop-marked-270588627",
    "osmId": 270588627,
    "name": "Coop Marked Nordskag",
    "chain": "Coop Marked",
    "chainId": "coop-marked",
    "storeType": "convenience",
    "location": {
      "lat": 63.7056578,
      "lng": 8.5627914
    },
    "address": "",
    "city": "",
    "postcode": "",
    "openingHours": "Mo-Fr 08:00-20:00, Sa 09:00-18:00",
    "wheelchair": "",
    "phone": "",
    "website": "",
    "organic": ""
  },
  {
    "id": "coop-marked-271661028",
    "osmId": 271661028,
    "name": "Coop Marked Nybø",
    "chain": "Coop Marked",
    "chainId": "coop-marked",
    "storeType": "convenience",
    "location": {
      "lat": 63.0977124,
      "lng": 9.3231479
    },
    "address": "",
    "city": "",
    "postcode": "",
    "openingHours": "Mo-Fr 08:00-20:00, Sa 08:00-18:00",
    "wheelchair": "",
    "phone": "",
    "website": "",
    "organic": ""
  },
  {
    "id": "obs-274116088",
    "osmId": 274116088,
    "name": "Obs Lillestrøm",
    "chain": "Obs",
    "chainId": "obs",
    "storeType": "hypermarket",
    "location": {
      "lat": 59.957067,
      "lng": 11.036482
    },
    "address": "",
    "city": "",
    "postcode": "",
    "openingHours": "Mo-Fr 07:00-23:00, Sa 08:00-21:00",
    "wheelchair": "",
    "phone": "",
    "website": "",
    "organic": ""
  },
  {
    "id": "kiwi-274118898",
    "osmId": 274118898,
    "name": "Kiwi Lillestrøm",
    "chain": "Kiwi",
    "chainId": "kiwi",
    "storeType": "discount",
    "location": {
      "lat": 59.9564771,
      "lng": 11.0466454
    },
    "address": "",
    "city": "",
    "postcode": "",
    "openingHours": "Mo-Sa 07:00-23:00",
    "wheelchair": "",
    "phone": "+47 63818840",
    "website": "",
    "organic": ""
  },
  {
    "id": "joker-274594504",
    "osmId": 274594504,
    "name": "Joker Henningsvær",
    "chain": "Joker",
    "chainId": "joker",
    "storeType": "convenience",
    "location": {
      "lat": 68.153391,
      "lng": 14.201677
    },
    "address": "",
    "city": "",
    "postcode": "",
    "openingHours": "Mo-Fr 09:00-20:00, Sa 10:00-18:00",
    "wheelchair": "yes",
    "phone": "+47 76074662",
    "website": "",
    "organic": ""
  },
  {
    "id": "coop-prix-275001693",
    "osmId": 275001693,
    "name": "Coop Prix Alexander Kiellands Gt",
    "chain": "Coop Prix",
    "chainId": "coop-prix",
    "storeType": "discount",
    "location": {
      "lat": 59.960244,
      "lng": 11.056628
    },
    "address": "",
    "city": "",
    "postcode": "",
    "openingHours": "Mo-Fr 08:00-22:00, Sa 08:00-21:00",
    "wheelchair": "",
    "phone": "",
    "website": "",
    "organic": ""
  },
  {
    "id": "coop-prix-276822137",
    "osmId": 276822137,
    "name": "Coop Prix Sjetnemarka",
    "chain": "Coop Prix",
    "chainId": "coop-prix",
    "storeType": "discount",
    "location": {
      "lat": 63.3688438,
      "lng": 10.3950268
    },
    "address": "",
    "city": "",
    "postcode": "",
    "openingHours": "Mo-Fr 07:00-22:00, Sa 08:00-21:00",
    "wheelchair": "",
    "phone": "",
    "website": "",
    "organic": ""
  },
  {
    "id": "joker-277676796",
    "osmId": 277676796,
    "name": "Joker Drevsjø",
    "chain": "Joker",
    "chainId": "joker",
    "storeType": "convenience",
    "location": {
      "lat": 61.891058,
      "lng": 12.029917
    },
    "address": "",
    "city": "",
    "postcode": "",
    "openingHours": "Mo-Fr 08:00-19:00, Sa 08:00-18:00, Su 12:00-16:00",
    "wheelchair": "",
    "phone": "+47 62456800",
    "website": "",
    "organic": ""
  },
  {
    "id": "obs-278230956",
    "osmId": 278230956,
    "name": "Obs Steinkjer",
    "chain": "Obs",
    "chainId": "obs",
    "storeType": "hypermarket",
    "location": {
      "lat": 64.011317,
      "lng": 11.4934598
    },
    "address": "",
    "city": "",
    "postcode": "",
    "openingHours": "Mo-Fr 09:00-21:00, Sa 09:00-20:00",
    "wheelchair": "",
    "phone": "",
    "website": "",
    "organic": ""
  },
  {
    "id": "bunnpris-278230959",
    "osmId": 278230959,
    "name": "Bunnpris Guldbergaunet",
    "chain": "Bunnpris",
    "chainId": "bunnpris",
    "storeType": "discount",
    "location": {
      "lat": 64.017776,
      "lng": 11.515148
    },
    "address": "",
    "city": "",
    "postcode": "",
    "openingHours": "Mo-Sa 07:00-23:00",
    "wheelchair": "",
    "phone": "+47 74161644",
    "website": "",
    "organic": ""
  },
  {
    "id": "kiwi-278230960",
    "osmId": 278230960,
    "name": "Kiwi Nordsia",
    "chain": "Kiwi",
    "chainId": "kiwi",
    "storeType": "discount",
    "location": {
      "lat": 64.021609,
      "lng": 11.491033
    },
    "address": "",
    "city": "",
    "postcode": "",
    "openingHours": "Mo-Sa 07:00-23:00",
    "wheelchair": "yes",
    "phone": "+47 74140207",
    "website": "",
    "organic": ""
  },
  {
    "id": "bunnpris-278467320",
    "osmId": 278467320,
    "name": "Bunnpris Skansen",
    "chain": "Bunnpris",
    "chainId": "bunnpris",
    "storeType": "discount",
    "location": {
      "lat": 62.4746749,
      "lng": 6.1568691
    },
    "address": "",
    "city": "",
    "postcode": "",
    "openingHours": "Mo-Fr 08:00-20:00, Sa 10:00-18:00, Su 10:00-20:00",
    "wheelchair": "",
    "phone": "+47 70131580",
    "website": "",
    "organic": ""
  },
  {
    "id": "extra-278504834",
    "osmId": 278504834,
    "name": "Extra Vatneeidet",
    "chain": "Extra",
    "chainId": "extra",
    "storeType": "discount",
    "location": {
      "lat": 62.545124,
      "lng": 6.590244
    },
    "address": "",
    "city": "",
    "postcode": "",
    "openingHours": "Mo-Sa 07:00-23:00",
    "wheelchair": "",
    "phone": "",
    "website": "",
    "organic": ""
  },
  {
    "id": "spar-279008044",
    "osmId": 279008044,
    "name": "Spar Hobøl",
    "chain": "Spar",
    "chainId": "spar",
    "storeType": "convenience",
    "location": {
      "lat": 59.558489,
      "lng": 10.845111
    },
    "address": "",
    "city": "",
    "postcode": "",
    "openingHours": "Mo-Fr 08:00-21:00, Sa 09:00-20:00",
    "wheelchair": "yes",
    "phone": "+47 69920220",
    "website": "",
    "organic": ""
  },
  {
    "id": "joker-279749193",
    "osmId": 279749193,
    "name": "Joker Kvenvær",
    "chain": "Joker",
    "chainId": "joker",
    "storeType": "convenience",
    "location": {
      "lat": 63.5335089,
      "lng": 8.3898614
    },
    "address": "",
    "city": "",
    "postcode": "",
    "openingHours": "Mo-Fr 09:00-19:00, Sa 09:00-18:00",
    "wheelchair": "yes",
    "phone": "+47 72444600",
    "website": "",
    "organic": ""
  },
  {
    "id": "bunnpris-279754858",
    "osmId": 279754858,
    "name": "Bunnpris Sandstad",
    "chain": "Bunnpris",
    "chainId": "bunnpris",
    "storeType": "discount",
    "location": {
      "lat": 63.53694,
      "lng": 9.138735
    },
    "address": "",
    "city": "",
    "postcode": "",
    "openingHours": "Mo-Fr 08:00-21:00, Sa 08:00-20:00",
    "wheelchair": "",
    "phone": "+47 72443610;+47 95250355",
    "website": "",
    "organic": ""
  },
  {
    "id": "extra-280320236",
    "osmId": 280320236,
    "name": "Extra Siggerud",
    "chain": "Extra",
    "chainId": "extra",
    "storeType": "discount",
    "location": {
      "lat": 59.79123,
      "lng": 10.881307
    },
    "address": "",
    "city": "",
    "postcode": "",
    "openingHours": "Mo-Fr 07:00-23:00, Sa 08:00-21:00",
    "wheelchair": "",
    "phone": "",
    "website": "",
    "organic": ""
  },
  {
    "id": "bunnpris-281068778",
    "osmId": 281068778,
    "name": "Bunnpris Broa",
    "chain": "Bunnpris",
    "chainId": "bunnpris",
    "storeType": "discount",
    "location": {
      "lat": 62.4697,
      "lng": 6.1256
    },
    "address": "",
    "city": "",
    "postcode": "",
    "openingHours": "Mo-Fr 07:00-22:00, Sa 09:00-21:00",
    "wheelchair": "",
    "phone": "+47 70122816",
    "website": "",
    "organic": ""
  },
  {
    "id": "extra-281329200",
    "osmId": 281329200,
    "name": "Extra Manstad",
    "chain": "Extra",
    "chainId": "extra",
    "storeType": "discount",
    "location": {
      "lat": 59.269442,
      "lng": 10.769907
    },
    "address": "",
    "city": "",
    "postcode": "",
    "openingHours": "Mo-Sa 07:00-23:00",
    "wheelchair": "",
    "phone": "",
    "website": "",
    "organic": ""
  },
  {
    "id": "meny-281804650",
    "osmId": 281804650,
    "name": "Meny Ravnanger",
    "chain": "Meny",
    "chainId": "meny",
    "storeType": "supermarket",
    "location": {
      "lat": 60.4600502,
      "lng": 5.1513598
    },
    "address": "",
    "city": "",
    "postcode": "",
    "openingHours": "Mo-Fr 08:00-22:00, Sa 08:00-20:00",
    "wheelchair": "",
    "phone": "+47 91895116",
    "website": "",
    "organic": ""
  },
  {
    "id": "rema-281805244",
    "osmId": 281805244,
    "name": "Rema 1000 Askøy",
    "chain": "Rema 1000",
    "chainId": "rema",
    "storeType": "discount",
    "location": {
      "lat": 60.428036,
      "lng": 5.192585
    },
    "address": "",
    "city": "",
    "postcode": "",
    "openingHours": "Mo-Sa 07:00-23:00",
    "wheelchair": "",
    "phone": "+47 56143080",
    "website": "",
    "organic": ""
  },
  {
    "id": "rema-282763146",
    "osmId": 282763146,
    "name": "Rema 1000 Danmarksplass",
    "chain": "Rema 1000",
    "chainId": "rema",
    "storeType": "discount",
    "location": {
      "lat": 60.376399,
      "lng": 5.339928
    },
    "address": "",
    "city": "",
    "postcode": "",
    "openingHours": "Mo-Sa 07:00-23:00",
    "wheelchair": "",
    "phone": "+47 55296500",
    "website": "",
    "organic": ""
  },
  {
    "id": "kiwi-282883638",
    "osmId": 282883638,
    "name": "Kiwi Surnadal",
    "chain": "Kiwi",
    "chainId": "kiwi",
    "storeType": "discount",
    "location": {
      "lat": 62.974129,
      "lng": 8.725438
    },
    "address": "",
    "city": "",
    "postcode": "",
    "openingHours": "Mo-Sa 07:00-23:00",
    "wheelchair": "",
    "phone": "+47 71660830",
    "website": "",
    "organic": ""
  },
  {
    "id": "spar-282901601",
    "osmId": 282901601,
    "name": "Spar Toppen",
    "chain": "Spar",
    "chainId": "spar",
    "storeType": "convenience",
    "location": {
      "lat": 59.1938285,
      "lng": 9.6261512
    },
    "address": "",
    "city": "",
    "postcode": "",
    "openingHours": "Mo-Fr 07:00-22:00, Sa 08:00-20:00",
    "wheelchair": "",
    "phone": "+47 35 52 16 76",
    "website": "",
    "organic": ""
  },
  {
    "id": "kiwi-282922025",
    "osmId": 282922025,
    "name": "Kiwi Frogner Skien",
    "chain": "Kiwi",
    "chainId": "kiwi",
    "storeType": "discount",
    "location": {
      "lat": 59.210169,
      "lng": 9.620972
    },
    "address": "",
    "city": "",
    "postcode": "",
    "openingHours": "Mo-Sa 07:00-23:00",
    "wheelchair": "",
    "phone": "+47 35531185",
    "website": "",
    "organic": ""
  },
  {
    "id": "coop-prix-283093676",
    "osmId": 283093676,
    "name": "Coop Prix Marken",
    "chain": "Coop Prix",
    "chainId": "coop-prix",
    "storeType": "discount",
    "location": {
      "lat": 60.392113,
      "lng": 5.330169
    },
    "address": "",
    "city": "",
    "postcode": "",
    "openingHours": "Mo-Fr 07:00-23:00, Sa 08:00-20:00",
    "wheelchair": "yes",
    "phone": "",
    "website": "",
    "organic": ""
  },
  {
    "id": "meny-283136682",
    "osmId": 283136682,
    "name": "Meny Klosterfoss",
    "chain": "Meny",
    "chainId": "meny",
    "storeType": "supermarket",
    "location": {
      "lat": 59.196565,
      "lng": 9.603458
    },
    "address": "",
    "city": "",
    "postcode": "",
    "openingHours": "Mo-Fr 06:30-22:00, Sa 06:30-20:00",
    "wheelchair": "",
    "phone": "+47 35584100",
    "website": "",
    "organic": ""
  },
  {
    "id": "meny-283476317",
    "osmId": 283476317,
    "name": "Meny Saga",
    "chain": "Meny",
    "chainId": "meny",
    "storeType": "supermarket",
    "location": {
      "lat": 59.1859386,
      "lng": 9.6138561
    },
    "address": "",
    "city": "",
    "postcode": "",
    "openingHours": "Mo-Fr 06:30-22:00, Sa 07:00-20:00",
    "wheelchair": "",
    "phone": "+47 35913838",
    "website": "",
    "organic": ""
  },
  {
    "id": "rema-283597920",
    "osmId": 283597920,
    "name": "Rema 1000 Nyrud",
    "chain": "Rema 1000",
    "chainId": "rema",
    "storeType": "discount",
    "location": {
      "lat": 65.83398,
      "lng": 13.211943
    },
    "address": "",
    "city": "",
    "postcode": "",
    "openingHours": "Mo-Sa 07:00-23:00",
    "wheelchair": "",
    "phone": "+47 75170855",
    "website": "",
    "organic": ""
  },
  {
    "id": "matkroken-283602424",
    "osmId": 283602424,
    "name": "Matkroken Trones",
    "chain": "Matkroken",
    "chainId": "matkroken",
    "storeType": "convenience",
    "location": {
      "lat": 64.741907,
      "lng": 12.843865
    },
    "address": "",
    "city": "",
    "postcode": "",
    "openingHours": "Mo-Fr 09:00-17:00, Sa 10:00-15:00",
    "wheelchair": "",
    "phone": "",
    "website": "",
    "organic": ""
  },
  {
    "id": "kiwi-283933517",
    "osmId": 283933517,
    "name": "Kiwi Myren",
    "chain": "Kiwi",
    "chainId": "kiwi",
    "storeType": "discount",
    "location": {
      "lat": 59.20061,
      "lng": 9.588886
    },
    "address": "",
    "city": "",
    "postcode": "",
    "openingHours": "Mo-Sa 07:00-23:00",
    "wheelchair": "",
    "phone": "+47 40006906",
    "website": "",
    "organic": ""
  },
  {
    "id": "kiwi-285686388",
    "osmId": 285686388,
    "name": "Kiwi Sandsli",
    "chain": "Kiwi",
    "chainId": "kiwi",
    "storeType": "discount",
    "location": {
      "lat": 60.292302,
      "lng": 5.285253
    },
    "address": "",
    "city": "",
    "postcode": "",
    "openingHours": "Mo-Sa 07:00-23:00",
    "wheelchair": "yes",
    "phone": "+47 55120074",
    "website": "https://kiwi.no/",
    "organic": ""
  },
  {
    "id": "matkroken-286491372",
    "osmId": 286491372,
    "name": "Matkroken Blekenberg",
    "chain": "Matkroken",
    "chainId": "matkroken",
    "storeType": "convenience",
    "location": {
      "lat": 60.374224,
      "lng": 5.332204
    },
    "address": "",
    "city": "",
    "postcode": "",
    "openingHours": "Mo-Fr 07:00-23:00, Sa 08:00-23:00",
    "wheelchair": "limited",
    "phone": "",
    "website": "",
    "organic": ""
  },
  {
    "id": "extra-286502505",
    "osmId": 286502505,
    "name": "Extra Øvregaten",
    "chain": "Extra",
    "chainId": "extra",
    "storeType": "discount",
    "location": {
      "lat": 60.398626,
      "lng": 5.324308
    },
    "address": "",
    "city": "",
    "postcode": "",
    "openingHours": "Mo-Sa 07:00-23:00",
    "wheelchair": "limited",
    "phone": "",
    "website": "",
    "organic": ""
  },
  {
    "id": "kiwi-286502510",
    "osmId": 286502510,
    "name": "Kiwi Strandgaten Bergen",
    "chain": "Kiwi",
    "chainId": "kiwi",
    "storeType": "discount",
    "location": {
      "lat": 60.397349,
      "lng": 5.311392
    },
    "address": "",
    "city": "",
    "postcode": "",
    "openingHours": "Mo-Sa 07:00-23:00",
    "wheelchair": "yes",
    "phone": "+47 55233485",
    "website": "https://kiwi.no/Finn-butikk/Kiwi-Strandgaten-Bergen/",
    "organic": ""
  },
  {
    "id": "kiwi-286549729",
    "osmId": 286549729,
    "name": "Kiwi Smestad",
    "chain": "Kiwi",
    "chainId": "kiwi",
    "storeType": "discount",
    "location": {
      "lat": 61.1338758,
      "lng": 10.4528283
    },
    "address": "",
    "city": "",
    "postcode": "",
    "openingHours": "Mo-Sa 07:00-23:00",
    "wheelchair": "yes",
    "phone": "+47 61253905",
    "website": "",
    "organic": ""
  },
  {
    "id": "rema-286618732",
    "osmId": 286618732,
    "name": "Rema 1000 Svolvær",
    "chain": "Rema 1000",
    "chainId": "rema",
    "storeType": "discount",
    "location": {
      "lat": 68.235101,
      "lng": 14.560401
    },
    "address": "",
    "city": "",
    "postcode": "",
    "openingHours": "Mo-Sa 07:00-23:00",
    "wheelchair": "",
    "phone": "+47 76072765",
    "website": "",
    "organic": ""
  },
  {
    "id": "rema-287159656",
    "osmId": 287159656,
    "name": "Rema 1000 Haukelandsveien",
    "chain": "Rema 1000",
    "chainId": "rema",
    "storeType": "discount",
    "location": {
      "lat": 60.377162,
      "lng": 5.358722
    },
    "address": "",
    "city": "",
    "postcode": "",
    "openingHours": "Mo-Sa 06:30-23:00",
    "wheelchair": "",
    "phone": "+47 55200923",
    "website": "https://www.rema.no/butikker/Bergen/rema-1000-haukelandsveien/351688",
    "organic": ""
  },
  {
    "id": "kiwi-287406301",
    "osmId": 287406301,
    "name": "Kiwi Sørås",
    "chain": "Kiwi",
    "chainId": "kiwi",
    "storeType": "discount",
    "location": {
      "lat": 60.297522,
      "lng": 5.316969
    },
    "address": "",
    "city": "",
    "postcode": "",
    "openingHours": "Mo-Sa 07:00-23:00",
    "wheelchair": "yes",
    "phone": "+47 55131120",
    "website": "https://kiwi.no/",
    "organic": ""
  },
  {
    "id": "spar-287468334",
    "osmId": 287468334,
    "name": "Spar Eikeviken",
    "chain": "Spar",
    "chainId": "spar",
    "storeType": "convenience",
    "location": {
      "lat": 60.428234,
      "lng": 5.294172
    },
    "address": "",
    "city": "",
    "postcode": "",
    "openingHours": "Mo-Fr 08:00-22:00, Sa 09:00-20:00",
    "wheelchair": "",
    "phone": "+47 55257621",
    "website": "",
    "organic": ""
  },
  {
    "id": "extra-287468344",
    "osmId": 287468344,
    "name": "Extra Helleveien",
    "chain": "Extra",
    "chainId": "extra",
    "storeType": "discount",
    "location": {
      "lat": 60.436794,
      "lng": 5.286437
    },
    "address": "",
    "city": "",
    "postcode": "",
    "openingHours": "Mo-Sa 07:00-23:00",
    "wheelchair": "limited",
    "phone": "",
    "website": "",
    "organic": ""
  },
  {
    "id": "rema-287469597",
    "osmId": 287469597,
    "name": "Rema 1000 Eidsvåg",
    "chain": "Rema 1000",
    "chainId": "rema",
    "storeType": "discount",
    "location": {
      "lat": 60.438223,
      "lng": 5.322826
    },
    "address": "",
    "city": "",
    "postcode": "",
    "openingHours": "Mo-Sa 07:00-23:00",
    "wheelchair": "yes",
    "phone": "+47 55563280",
    "website": "",
    "organic": ""
  },
  {
    "id": "kiwi-287776658",
    "osmId": 287776658,
    "name": "Kiwi Nesttun sentrum",
    "chain": "Kiwi",
    "chainId": "kiwi",
    "storeType": "discount",
    "location": {
      "lat": 60.31996,
      "lng": 5.353417
    },
    "address": "",
    "city": "",
    "postcode": "",
    "openingHours": "Mo-Sa 07:00-23:00",
    "wheelchair": "",
    "phone": "+47 55220811",
    "website": "",
    "organic": ""
  },
  {
    "id": "matkroken-289192214",
    "osmId": 289192214,
    "name": "Matkroken Rasvåg",
    "chain": "Matkroken",
    "chainId": "matkroken",
    "storeType": "convenience",
    "location": {
      "lat": 58.212306,
      "lng": 6.580422
    },
    "address": "",
    "city": "",
    "postcode": "",
    "openingHours": "Mo-Th 10:00-18:00, Fr 10:00-19:00, Sa 10:00-18:00",
    "wheelchair": "",
    "phone": "",
    "website": "",
    "organic": ""
  },
  {
    "id": "spar-289385430",
    "osmId": 289385430,
    "name": "Spar Saulandtunet",
    "chain": "Spar",
    "chainId": "spar",
    "storeType": "convenience",
    "location": {
      "lat": 59.6130468,
      "lng": 8.9467789
    },
    "address": "",
    "city": "",
    "postcode": "",
    "openingHours": "Mo-We 07:30-21:00, Th-Fr 07:30-22:00, Sa 09:00-20:00",
    "wheelchair": "",
    "phone": "+47 35023355",
    "website": "",
    "organic": ""
  },
  {
    "id": "extra-289412343",
    "osmId": 289412343,
    "name": "Extra Meråker",
    "chain": "Extra",
    "chainId": "extra",
    "storeType": "discount",
    "location": {
      "lat": 63.412866,
      "lng": 11.739096
    },
    "address": "",
    "city": "",
    "postcode": "",
    "openingHours": "Mo-Sa 07:00-23:00",
    "wheelchair": "",
    "phone": "",
    "website": "",
    "organic": ""
  },
  {
    "id": "rema-289518556",
    "osmId": 289518556,
    "name": "Rema 1000 Kjerreidviken",
    "chain": "Rema 1000",
    "chainId": "rema",
    "storeType": "discount",
    "location": {
      "lat": 60.341371,
      "lng": 5.246888
    },
    "address": "",
    "city": "",
    "postcode": "",
    "openingHours": "Mo-Sa 07:00-23:00",
    "wheelchair": "yes",
    "phone": "+47 55268770",
    "website": "",
    "organic": ""
  },
  {
    "id": "rema-289525263",
    "osmId": 289525263,
    "name": "Rema 1000 Myrholtet",
    "chain": "Rema 1000",
    "chainId": "rema",
    "storeType": "discount",
    "location": {
      "lat": 60.345741,
      "lng": 5.271583
    },
    "address": "",
    "city": "",
    "postcode": "",
    "openingHours": "Mo-Sa 07:00-23:00",
    "wheelchair": "",
    "phone": "+47 55506330",
    "website": "",
    "organic": ""
  },
  {
    "id": "extra-289529135",
    "osmId": 289529135,
    "name": "Extra Minde",
    "chain": "Extra",
    "chainId": "extra",
    "storeType": "discount",
    "location": {
      "lat": 60.360687,
      "lng": 5.343119
    },
    "address": "",
    "city": "",
    "postcode": "",
    "openingHours": "Mo-Fr 06:30-24:00, Sa 07:00-23:00",
    "wheelchair": "",
    "phone": "",
    "website": "",
    "organic": ""
  },
  {
    "id": "rema-289529136",
    "osmId": 289529136,
    "name": "Rema 1000 Wergeland",
    "chain": "Rema 1000",
    "chainId": "rema",
    "storeType": "discount",
    "location": {
      "lat": 60.360226,
      "lng": 5.352041
    },
    "address": "",
    "city": "",
    "postcode": "",
    "openingHours": "Mo-Sa 06:00-23:00, Su 09:00-21:00",
    "wheelchair": "yes",
    "phone": "+47 55360251",
    "website": "https://www.rema.no/butikker/vestland/bergen/rema-1000-wergeland",
    "organic": ""
  },
  {
    "id": "meny-289531526",
    "osmId": 289531526,
    "name": "Meny Fantoft",
    "chain": "Meny",
    "chainId": "meny",
    "storeType": "supermarket",
    "location": {
      "lat": 60.346512,
      "lng": 5.352108
    },
    "address": "",
    "city": "",
    "postcode": "",
    "openingHours": "Mo-Fr 07:00-22:00, Sa 09:00-20:00",
    "wheelchair": "yes",
    "phone": "+47 55273200",
    "website": "https://meny.no/",
    "organic": ""
  },
  {
    "id": "rema-290377809",
    "osmId": 290377809,
    "name": "Rema 1000 Frekhaug",
    "chain": "Rema 1000",
    "chainId": "rema",
    "storeType": "discount",
    "location": {
      "lat": 60.5181894,
      "lng": 5.2414685
    },
    "address": "",
    "city": "",
    "postcode": "",
    "openingHours": "Mo-Sa 07:00-23:00",
    "wheelchair": "yes",
    "phone": "+47 56176000",
    "website": "",
    "organic": ""
  },
  {
    "id": "bunnpris-291073606",
    "osmId": 291073606,
    "name": "Bunnpris Tonstad",
    "chain": "Bunnpris",
    "chainId": "bunnpris",
    "storeType": "discount",
    "location": {
      "lat": 63.361877,
      "lng": 10.389449
    },
    "address": "",
    "city": "",
    "postcode": "",
    "openingHours": "Mo-Fr 07:00-22:00, Sa 09:00-22:00, Su 11:00-22:00",
    "wheelchair": "",
    "phone": "+47 72887992",
    "website": "",
    "organic": ""
  },
  {
    "id": "spar-292344739",
    "osmId": 292344739,
    "name": "Spar Borgestad",
    "chain": "Spar",
    "chainId": "spar",
    "storeType": "convenience",
    "location": {
      "lat": 59.170312,
      "lng": 9.651527
    },
    "address": "",
    "city": "",
    "postcode": "",
    "openingHours": "Mo-Fr 07:00-22:00, Sa 08:00-20:00",
    "wheelchair": "",
    "phone": "+47 35 50 96 00",
    "website": "",
    "organic": ""
  },
  {
    "id": "meny-293400213",
    "osmId": 293400213,
    "name": "Meny Tangen",
    "chain": "Meny",
    "chainId": "meny",
    "storeType": "supermarket",
    "location": {
      "lat": 59.855946,
      "lng": 10.660829
    },
    "address": "",
    "city": "",
    "postcode": "",
    "openingHours": "Mo-Fr 08:00-21:00, Sa 09:00-20:00",
    "wheelchair": "",
    "phone": "+47 66965100",
    "website": "https://meny.no/",
    "organic": ""
  },
  {
    "id": "kiwi-294168549",
    "osmId": 294168549,
    "name": "Kiwi Rolland",
    "chain": "Kiwi",
    "chainId": "kiwi",
    "storeType": "discount",
    "location": {
      "lat": 60.462065,
      "lng": 5.329591
    },
    "address": "",
    "city": "",
    "postcode": "",
    "openingHours": "Mo-Sa 07:00-23:00",
    "wheelchair": "yes",
    "phone": "+47 55953733",
    "website": "https://kiwi.no/",
    "organic": ""
  },
  {
    "id": "coop-prix-294170502",
    "osmId": 294170502,
    "name": "Coop Prix Prestestien",
    "chain": "Coop Prix",
    "chainId": "coop-prix",
    "storeType": "discount",
    "location": {
      "lat": 60.465898,
      "lng": 5.312715
    },
    "address": "",
    "city": "",
    "postcode": "",
    "openingHours": "Mo-Sa 07:00-23:00",
    "wheelchair": "",
    "phone": "",
    "website": "",
    "organic": ""
  },
  {
    "id": "joker-295698499",
    "osmId": 295698499,
    "name": "Joker Tyinkrysset",
    "chain": "Joker",
    "chainId": "joker",
    "storeType": "convenience",
    "location": {
      "lat": 61.204033,
      "lng": 8.246392
    },
    "address": "",
    "city": "",
    "postcode": "",
    "openingHours": "Mo-Th 09:00-18:00, Fr 09:00-20:00, Sa 09:00-18:00, Su 10:00-18:00",
    "wheelchair": "",
    "phone": "+47 61367717",
    "website": "https://joker.no/finn-butikk/joker-tyinkrysset",
    "organic": ""
  },
  {
    "id": "extra-296251601",
    "osmId": 296251601,
    "name": "Extra",
    "chain": "Extra",
    "chainId": "extra",
    "storeType": "discount",
    "location": {
      "lat": 60.2574344,
      "lng": 5.3371166
    },
    "address": "",
    "city": "",
    "postcode": "",
    "openingHours": "Mo-Sa 07:00-23:00",
    "wheelchair": "yes",
    "phone": "",
    "website": "",
    "organic": ""
  },
  {
    "id": "coop-marked-296499513",
    "osmId": 296499513,
    "name": "Coop Marked Bøfjord",
    "chain": "Coop Marked",
    "chainId": "coop-marked",
    "storeType": "convenience",
    "location": {
      "lat": 63.007623,
      "lng": 8.357454
    },
    "address": "",
    "city": "",
    "postcode": "",
    "openingHours": "Mo 11:00-18:00, Tu-We 11:00-16:00, Th 11:00-18:00, Fr-Sa 11:00-16:00",
    "wheelchair": "",
    "phone": "",
    "website": "",
    "organic": ""
  },
  {
    "id": "joker-297349537",
    "osmId": 297349537,
    "name": "Joker Utsira",
    "chain": "Joker",
    "chainId": "joker",
    "storeType": "convenience",
    "location": {
      "lat": 59.298859,
      "lng": 4.89139
    },
    "address": "",
    "city": "",
    "postcode": "",
    "openingHours": "Mo-Tu 09:00-18:00, We-Th 08:00-18:00, Fr 09:00-18:00, Sa 10:00-14:00, Su 13:00-14:00",
    "wheelchair": "",
    "phone": "+47 52749220",
    "website": "",
    "organic": ""
  },
  {
    "id": "matkroken-299327762",
    "osmId": 299327762,
    "name": "Matkroken Ljabru",
    "chain": "Matkroken",
    "chainId": "matkroken",
    "storeType": "convenience",
    "location": {
      "lat": 59.85376,
      "lng": 10.802129
    },
    "address": "",
    "city": "",
    "postcode": "",
    "openingHours": "Mo-Fr 08:00-22:00, Sa 08:00-21:00",
    "wheelchair": "",
    "phone": "",
    "website": "",
    "organic": ""
  },
  {
    "id": "bunnpris-299508269",
    "osmId": 299508269,
    "name": "Bunnpris Montana",
    "chain": "Bunnpris",
    "chainId": "bunnpris",
    "storeType": "discount",
    "location": {
      "lat": 60.371074,
      "lng": 5.367986
    },
    "address": "",
    "city": "",
    "postcode": "",
    "openingHours": "Mo-Fr 09:00-21:00, Sa 09:00-20:00",
    "wheelchair": "",
    "phone": "+47 55296634",
    "website": "",
    "organic": ""
  },
  {
    "id": "bunnpris-299612756",
    "osmId": 299612756,
    "name": "Bunnpris Lindvik",
    "chain": "Bunnpris",
    "chainId": "bunnpris",
    "storeType": "discount",
    "location": {
      "lat": 60.367491,
      "lng": 5.366897
    },
    "address": "",
    "city": "",
    "postcode": "",
    "openingHours": "Mo-Fr 09:00-22:00, Sa 09:00-20:00",
    "wheelchair": "",
    "phone": "+47 55297867",
    "website": "",
    "organic": ""
  },
  {
    "id": "rema-299612922",
    "osmId": 299612922,
    "name": "Rema 1000 Nattland",
    "chain": "Rema 1000",
    "chainId": "rema",
    "storeType": "discount",
    "location": {
      "lat": 60.351094,
      "lng": 5.369186
    },
    "address": "",
    "city": "",
    "postcode": "",
    "openingHours": "Mo-Sa 07:00-23:00",
    "wheelchair": "",
    "phone": "+47 55285730",
    "website": "",
    "organic": ""
  },
  {
    "id": "meny-304632879",
    "osmId": 304632879,
    "name": "Meny Lietorvet",
    "chain": "Meny",
    "chainId": "meny",
    "storeType": "supermarket",
    "location": {
      "lat": 59.2105627,
      "lng": 9.6048993
    },
    "address": "",
    "city": "",
    "postcode": "",
    "openingHours": "Mo-Fr 08:00-21:00, Sa 08:00-19:00",
    "wheelchair": "",
    "phone": "+47 35915660",
    "website": "",
    "organic": ""
  },
  {
    "id": "coop-marked-305721516",
    "osmId": 305721516,
    "name": "Coop Marked Rye",
    "chain": "Coop Marked",
    "chainId": "coop-marked",
    "storeType": "convenience",
    "location": {
      "lat": 63.422619,
      "lng": 10.149234
    },
    "address": "",
    "city": "",
    "postcode": "",
    "openingHours": "Mo-Fr 09:00-20:00, Sa 09:00-18:00",
    "wheelchair": "",
    "phone": "",
    "website": "",
    "organic": ""
  },
  {
    "id": "extra-305721639",
    "osmId": 305721639,
    "name": "Extra Byneset",
    "chain": "Extra",
    "chainId": "extra",
    "storeType": "discount",
    "location": {
      "lat": 63.355669,
      "lng": 10.164235
    },
    "address": "",
    "city": "",
    "postcode": "",
    "openingHours": "Mo-Sa 07:00-23:00",
    "wheelchair": "yes",
    "phone": "",
    "website": "",
    "organic": ""
  },
  {
    "id": "rema-306935384",
    "osmId": 306935384,
    "name": "Rema 1000 Moan",
    "chain": "Rema 1000",
    "chainId": "rema",
    "storeType": "discount",
    "location": {
      "lat": 63.733504,
      "lng": 11.28383
    },
    "address": "",
    "city": "",
    "postcode": "",
    "openingHours": "Mo-Sa 07:00-23:00",
    "wheelchair": "yes",
    "phone": "+47 90200611",
    "website": "",
    "organic": ""
  },
  {
    "id": "meny-306935451",
    "osmId": 306935451,
    "name": "Meny Magneten",
    "chain": "Meny",
    "chainId": "meny",
    "storeType": "supermarket",
    "location": {
      "lat": 63.7335892,
      "lng": 11.2814364
    },
    "address": "",
    "city": "",
    "postcode": "",
    "openingHours": "Mo-Fr 09:00-21:00, Sa 09:00-20:00",
    "wheelchair": "yes",
    "phone": "+47 74085800",
    "website": "",
    "organic": ""
  },
  {
    "id": "coop-prix-306935828",
    "osmId": 306935828,
    "name": "Coop Prix Levangernesset",
    "chain": "Coop Prix",
    "chainId": "coop-prix",
    "storeType": "discount",
    "location": {
      "lat": 63.74747,
      "lng": 11.285651
    },
    "address": "",
    "city": "",
    "postcode": "",
    "openingHours": "Mo-Fr 08:00-22:00, Sa 08:00-21:00",
    "wheelchair": "",
    "phone": "",
    "website": "",
    "organic": ""
  },
  {
    "id": "bunnpris-307064181",
    "osmId": 307064181,
    "name": "Bunnpris Dombås",
    "chain": "Bunnpris",
    "chainId": "bunnpris",
    "storeType": "discount",
    "location": {
      "lat": 62.071875,
      "lng": 9.123279
    },
    "address": "",
    "city": "",
    "postcode": "",
    "openingHours": "Mo-Fr 08:00-22:00, Sa 08:00-20:00, Su 11:00-20:00",
    "wheelchair": "",
    "phone": "+47 61241355",
    "website": "",
    "organic": ""
  },
  {
    "id": "spar-307110637",
    "osmId": 307110637,
    "name": "Spar Karensfryd",
    "chain": "Spar",
    "chainId": "spar",
    "storeType": "convenience",
    "location": {
      "lat": 60.381607,
      "lng": 5.311831
    },
    "address": "",
    "city": "",
    "postcode": "",
    "openingHours": "Mo-Fr 07:00-22:00, Sa 08:00-21:00",
    "wheelchair": "",
    "phone": "+47 55342045",
    "website": "",
    "organic": ""
  },
  {
    "id": "coop-mega-307507713",
    "osmId": 307507713,
    "name": "Coop Mega Aker brygge",
    "chain": "Coop Mega",
    "chainId": "coop-mega",
    "storeType": "supermarket",
    "location": {
      "lat": 59.91027,
      "lng": 10.725459
    },
    "address": "",
    "city": "",
    "postcode": "",
    "openingHours": "Mo-Fr 08:00-22:00, Sa 09:00-20:00",
    "wheelchair": "yes",
    "phone": "",
    "website": "",
    "organic": ""
  },
  {
    "id": "extra-307508648",
    "osmId": 307508648,
    "name": "Extra Majorstuen",
    "chain": "Extra",
    "chainId": "extra",
    "storeType": "discount",
    "location": {
      "lat": 59.930617,
      "lng": 10.716066
    },
    "address": "",
    "city": "",
    "postcode": "",
    "openingHours": "Mo-Sa 07:00-23:00",
    "wheelchair": "limited",
    "phone": "",
    "website": "",
    "organic": ""
  },
  {
    "id": "extra-308128399",
    "osmId": 308128399,
    "name": "Extra Moan Levanger",
    "chain": "Extra",
    "chainId": "extra",
    "storeType": "discount",
    "location": {
      "lat": 63.7351,
      "lng": 11.2829
    },
    "address": "",
    "city": "",
    "postcode": "",
    "openingHours": "Mo-Sa 07:00-23:00",
    "wheelchair": "yes",
    "phone": "",
    "website": "",
    "organic": ""
  },
  {
    "id": "spar-308511621",
    "osmId": 308511621,
    "name": "Spar Byhagen",
    "chain": "Spar",
    "chainId": "spar",
    "storeType": "convenience",
    "location": {
      "lat": 58.8514429,
      "lng": 5.7296874
    },
    "address": "",
    "city": "",
    "postcode": "",
    "openingHours": "Mo-Fr 07:00-23:00, Sa 09:00-20:00",
    "wheelchair": "yes",
    "phone": "+47 51 66 70 99",
    "website": "",
    "organic": ""
  },
  {
    "id": "meny-308511623",
    "osmId": 308511623,
    "name": "Helgø Meny Sandnes",
    "chain": "Meny",
    "chainId": "meny",
    "storeType": "supermarket",
    "location": {
      "lat": 58.8484507,
      "lng": 5.7406973
    },
    "address": "",
    "city": "",
    "postcode": "",
    "openingHours": "Mo-Fr 09:00-21:00, Sa 09:00-20:00",
    "wheelchair": "",
    "phone": "+47 51609700",
    "website": "",
    "organic": ""
  },
  {
    "id": "extra-308512769",
    "osmId": 308512769,
    "name": "Extra Sandnes",
    "chain": "Extra",
    "chainId": "extra",
    "storeType": "discount",
    "location": {
      "lat": 58.849466,
      "lng": 5.738102
    },
    "address": "",
    "city": "",
    "postcode": "",
    "openingHours": "Mo-Fr 07:00-23:00, Sa 08:00-22:00",
    "wheelchair": "",
    "phone": "",
    "website": "",
    "organic": ""
  },
  {
    "id": "joker-309473162",
    "osmId": 309473162,
    "name": "Joker Holtet",
    "chain": "Joker",
    "chainId": "joker",
    "storeType": "convenience",
    "location": {
      "lat": 59.883076,
      "lng": 10.784079
    },
    "address": "",
    "city": "",
    "postcode": "",
    "openingHours": "Mo-Fr 08:00-22:00, Sa 09:00-22:00, Su 10:00-22:00",
    "wheelchair": "",
    "phone": "+47 22280704",
    "website": "https://joker.no/finn-butikk/joker-holtet",
    "organic": ""
  },
  {
    "id": "kiwi-309494000",
    "osmId": 309494000,
    "name": "Kiwi Hamrehjørnet",
    "chain": "Kiwi",
    "chainId": "kiwi",
    "storeType": "discount",
    "location": {
      "lat": 60.382165,
      "lng": 5.304135
    },
    "address": "",
    "city": "",
    "postcode": "",
    "openingHours": "Mo-Sa 07:00-23:00",
    "wheelchair": "limited",
    "phone": "+47 55341015",
    "website": "",
    "organic": ""
  },
  {
    "id": "kiwi-312135676",
    "osmId": 312135676,
    "name": "Kiwi Refsnes",
    "chain": "Kiwi",
    "chainId": "kiwi",
    "storeType": "discount",
    "location": {
      "lat": 59.4427466,
      "lng": 10.6187938
    },
    "address": "",
    "city": "",
    "postcode": "",
    "openingHours": "Mo-Fr 07:00-23:00, Sa 08:00-21:00",
    "wheelchair": "limited",
    "phone": "+47 69273011",
    "website": "",
    "organic": ""
  },
  {
    "id": "kiwi-315897137",
    "osmId": 315897137,
    "name": "Kiwi Skollenborg",
    "chain": "Kiwi",
    "chainId": "kiwi",
    "storeType": "discount",
    "location": {
      "lat": 59.6217112,
      "lng": 9.6828272
    },
    "address": "",
    "city": "",
    "postcode": "",
    "openingHours": "Mo-Sa 07:00-23:00",
    "wheelchair": "",
    "phone": "+47 32764970",
    "website": "",
    "organic": ""
  },
  {
    "id": "naerbutikken-320975502",
    "osmId": 320975502,
    "name": "Nærbutikken Tufsingdal",
    "chain": "Nærbutikken",
    "chainId": "naerbutikken",
    "storeType": "convenience",
    "location": {
      "lat": 62.286435,
      "lng": 11.735286
    },
    "address": "",
    "city": "",
    "postcode": "",
    "openingHours": "Mo-Th 06:00-20:00, Fr 06:00-22:00, Sa-Su 06:00-20:00",
    "wheelchair": "",
    "phone": "+47 47700083",
    "website": "",
    "organic": ""
  },
  {
    "id": "naerbutikken-321022113",
    "osmId": 321022113,
    "name": "Nærbutikken Slettås handelslag",
    "chain": "Nærbutikken",
    "chainId": "naerbutikken",
    "storeType": "convenience",
    "location": {
      "lat": 61.372559,
      "lng": 11.954879
    },
    "address": "",
    "city": "",
    "postcode": "",
    "openingHours": "Mo-We 10:00-17:00, Th 11:00-18:00, Fr 10:00-18:00, Sa 09:00-15:00",
    "wheelchair": "",
    "phone": "+47 62450910",
    "website": "",
    "organic": ""
  },
  {
    "id": "kiwi-322839917",
    "osmId": 322839917,
    "name": "Kiwi Ringebu",
    "chain": "Kiwi",
    "chainId": "kiwi",
    "storeType": "discount",
    "location": {
      "lat": 61.529194,
      "lng": 10.141484
    },
    "address": "",
    "city": "",
    "postcode": "",
    "openingHours": "Mo-Sa 07:00-23:00",
    "wheelchair": "yes",
    "phone": "+47 61280519",
    "website": "",
    "organic": ""
  },
  {
    "id": "kiwi-323126199",
    "osmId": 323126199,
    "name": "Kiwi Bjørnstad",
    "chain": "Kiwi",
    "chainId": "kiwi",
    "storeType": "discount",
    "location": {
      "lat": 59.6142759,
      "lng": 10.4092861
    },
    "address": "",
    "city": "",
    "postcode": "",
    "openingHours": "Mo-Sa 07:00-23:00",
    "wheelchair": "",
    "phone": "+47 33772610",
    "website": "",
    "organic": ""
  },
  {
    "id": "rema-323126223",
    "osmId": 323126223,
    "name": "Rema 1000 Svelvik",
    "chain": "Rema 1000",
    "chainId": "rema",
    "storeType": "discount",
    "location": {
      "lat": 59.617581,
      "lng": 10.408093
    },
    "address": "",
    "city": "",
    "postcode": "",
    "openingHours": "Mo-Sa 07:00-23:00",
    "wheelchair": "",
    "phone": "+47 33784395",
    "website": "",
    "organic": ""
  },
  {
    "id": "extra-323126700",
    "osmId": 323126700,
    "name": "Extra Svelvik",
    "chain": "Extra",
    "chainId": "extra",
    "storeType": "discount",
    "location": {
      "lat": 59.597647,
      "lng": 10.400263
    },
    "address": "",
    "city": "",
    "postcode": "",
    "openingHours": "Mo-Sa 07:00-23:00",
    "wheelchair": "",
    "phone": "",
    "website": "",
    "organic": ""
  },
  {
    "id": "meny-329416257",
    "osmId": 329416257,
    "name": "Meny Høyden",
    "chain": "Meny",
    "chainId": "meny",
    "storeType": "supermarket",
    "location": {
      "lat": 59.4178352,
      "lng": 10.6866041
    },
    "address": "",
    "city": "",
    "postcode": "",
    "openingHours": "Mo-Fr 07:00-21:00, Sa 08:00-19:00",
    "wheelchair": "",
    "phone": "+47 69232800",
    "website": "",
    "organic": ""
  },
  {
    "id": "kiwi-329724092",
    "osmId": 329724092,
    "name": "Kiwi Spydeberg",
    "chain": "Kiwi",
    "chainId": "kiwi",
    "storeType": "discount",
    "location": {
      "lat": 59.6190547,
      "lng": 11.0787613
    },
    "address": "",
    "city": "",
    "postcode": "",
    "openingHours": "Mo-Sa 07:00-23:00",
    "wheelchair": "yes",
    "phone": "+47 69835310",
    "website": "",
    "organic": ""
  },
  {
    "id": "rema-329724142",
    "osmId": 329724142,
    "name": "Rema 1000 Spydeberg",
    "chain": "Rema 1000",
    "chainId": "rema",
    "storeType": "discount",
    "location": {
      "lat": 59.6155481,
      "lng": 11.0764775
    },
    "address": "",
    "city": "",
    "postcode": "",
    "openingHours": "Mo-Sa 07:00-23:00",
    "wheelchair": "",
    "phone": "+47 69837970",
    "website": "",
    "organic": ""
  },
  {
    "id": "extra-329724145",
    "osmId": 329724145,
    "name": "Extra Spydeberg",
    "chain": "Extra",
    "chainId": "extra",
    "storeType": "discount",
    "location": {
      "lat": 59.6152488,
      "lng": 11.0799151
    },
    "address": "",
    "city": "",
    "postcode": "",
    "openingHours": "Mo-Sa 07:00-23:00",
    "wheelchair": "",
    "phone": "",
    "website": "",
    "organic": ""
  },
  {
    "id": "coop-prix-330330605",
    "osmId": 330330605,
    "name": "Coop Prix Byglandsfjord",
    "chain": "Coop Prix",
    "chainId": "coop-prix",
    "storeType": "discount",
    "location": {
      "lat": 58.670159,
      "lng": 7.805472
    },
    "address": "",
    "city": "",
    "postcode": "",
    "openingHours": "Mo-Fr 08:00-21:00, Sa 08:00-20:00",
    "wheelchair": "",
    "phone": "",
    "website": "",
    "organic": ""
  },
  {
    "id": "kiwi-335585355",
    "osmId": 335585355,
    "name": "Kiwi Frognerveien",
    "chain": "Kiwi",
    "chainId": "kiwi",
    "storeType": "discount",
    "location": {
      "lat": 59.921817,
      "lng": 10.705118
    },
    "address": "",
    "city": "",
    "postcode": "",
    "openingHours": "Mo-Sa 07:00-23:00",
    "wheelchair": "yes",
    "phone": "+47 22563492",
    "website": "",
    "organic": ""
  },
  {
    "id": "kiwi-338773226",
    "osmId": 338773226,
    "name": "Kiwi Kjeller",
    "chain": "Kiwi",
    "chainId": "kiwi",
    "storeType": "discount",
    "location": {
      "lat": 59.969458,
      "lng": 11.050971
    },
    "address": "",
    "city": "",
    "postcode": "",
    "openingHours": "Mo-Sa 07:00-23:00",
    "wheelchair": "yes",
    "phone": "+47 63816750",
    "website": "",
    "organic": ""
  },
  {
    "id": "kiwi-339701244",
    "osmId": 339701244,
    "name": "Kiwi Søreide",
    "chain": "Kiwi",
    "chainId": "kiwi",
    "storeType": "discount",
    "location": {
      "lat": 60.315583,
      "lng": 5.270493
    },
    "address": "",
    "city": "",
    "postcode": "",
    "openingHours": "Mo-Sa 07:00-23:00",
    "wheelchair": "yes",
    "phone": "+47 55913198",
    "website": "https://kiwi.no/",
    "organic": ""
  },
  {
    "id": "extra-339713388",
    "osmId": 339713388,
    "name": "Extra Raveien",
    "chain": "Extra",
    "chainId": "extra",
    "storeType": "discount",
    "location": {
      "lat": 59.6653252,
      "lng": 10.7919632
    },
    "address": "",
    "city": "",
    "postcode": "",
    "openingHours": "Mo-Sa 07:00-23:00",
    "wheelchair": "yes",
    "phone": "",
    "website": "",
    "organic": ""
  },
  {
    "id": "extra-341410664",
    "osmId": 341410664,
    "name": "Extra Tolvsrød",
    "chain": "Extra",
    "chainId": "extra",
    "storeType": "discount",
    "location": {
      "lat": 59.272417,
      "lng": 10.472264
    },
    "address": "",
    "city": "",
    "postcode": "",
    "openingHours": "Mo-Sa 07:00-23:00",
    "wheelchair": "",
    "phone": "",
    "website": "",
    "organic": ""
  },
  {
    "id": "meny-341411230",
    "osmId": 341411230,
    "name": "Meny Tolvsrød",
    "chain": "Meny",
    "chainId": "meny",
    "storeType": "supermarket",
    "location": {
      "lat": 59.272637,
      "lng": 10.463211
    },
    "address": "",
    "city": "",
    "postcode": "",
    "openingHours": "Mo-Sa 08:00-22:00",
    "wheelchair": "yes",
    "phone": "+47 33414160",
    "website": "",
    "organic": ""
  },
  {
    "id": "meny-343270608",
    "osmId": 343270608,
    "name": "Meny Dolviken",
    "chain": "Meny",
    "chainId": "meny",
    "storeType": "supermarket",
    "location": {
      "lat": 60.308619,
      "lng": 5.271538
    },
    "address": "",
    "city": "",
    "postcode": "",
    "openingHours": "Mo-Fr 07:00-22:00, Sa 09:00-20:00",
    "wheelchair": "",
    "phone": "+47 55526200",
    "website": "https://meny.no/Finn-butikk/MENY-Dolviken/",
    "organic": ""
  },
  {
    "id": "kiwi-345822585",
    "osmId": 345822585,
    "name": "Kiwi Sjusjøen",
    "chain": "Kiwi",
    "chainId": "kiwi",
    "storeType": "discount",
    "location": {
      "lat": 61.152645,
      "lng": 10.690827
    },
    "address": "",
    "city": "",
    "postcode": "",
    "openingHours": "Mo-Sa 09:00-21:00, Su 09:00-18:00",
    "wheelchair": "yes",
    "phone": "+47 62341300",
    "website": "",
    "organic": ""
  },
  {
    "id": "spar-346879044",
    "osmId": 346879044,
    "name": "Spar Skjoldtun",
    "chain": "Spar",
    "chainId": "spar",
    "storeType": "convenience",
    "location": {
      "lat": 60.3039459,
      "lng": 5.3376707
    },
    "address": "",
    "city": "",
    "postcode": "",
    "openingHours": "Mo-Fr 08:00-22:00, Sa 09:00-20:00",
    "wheelchair": "yes",
    "phone": "+47 55117210",
    "website": "",
    "organic": ""
  },
  {
    "id": "rema-347483777",
    "osmId": 347483777,
    "name": "Rema 1000 Jordal",
    "chain": "Rema 1000",
    "chainId": "rema",
    "storeType": "discount",
    "location": {
      "lat": 59.9082608,
      "lng": 10.7790482
    },
    "address": "",
    "city": "",
    "postcode": "",
    "openingHours": "Mo-Sa 07:00-23:00",
    "wheelchair": "yes",
    "phone": "+47 23300075",
    "website": "",
    "organic": ""
  },
  {
    "id": "extra-347483785",
    "osmId": 347483785,
    "name": "Extra St. Halvardsgate",
    "chain": "Extra",
    "chainId": "extra",
    "storeType": "discount",
    "location": {
      "lat": 59.90727,
      "lng": 10.780818
    },
    "address": "",
    "city": "",
    "postcode": "",
    "openingHours": "Mo-Fr 07:00-23:00, Sa 08:00-23:00",
    "wheelchair": "",
    "phone": "",
    "website": "",
    "organic": ""
  },
  {
    "id": "meny-353367644",
    "osmId": 353367644,
    "name": "Meny Kringsjå",
    "chain": "Meny",
    "chainId": "meny",
    "storeType": "supermarket",
    "location": {
      "lat": 59.9635408,
      "lng": 10.7369801
    },
    "address": "",
    "city": "",
    "postcode": "",
    "openingHours": "Mo-Fr 09:00-20:00, Sa 09:00-18:00",
    "wheelchair": "",
    "phone": "+47 23008585",
    "website": "",
    "organic": ""
  },
  {
    "id": "joker-354475947",
    "osmId": 354475947,
    "name": "Joker Gamlebyen",
    "chain": "Joker",
    "chainId": "joker",
    "storeType": "convenience",
    "location": {
      "lat": 59.908618,
      "lng": 10.7679467
    },
    "address": "",
    "city": "",
    "postcode": "",
    "openingHours": "Mo-Fr 06:30-23:00, Sa-Su 08:00-23:00",
    "wheelchair": "",
    "phone": "+47 40630077",
    "website": "",
    "organic": ""
  },
  {
    "id": "kiwi-355542182",
    "osmId": 355542182,
    "name": "Kiwi Romsås",
    "chain": "Kiwi",
    "chainId": "kiwi",
    "storeType": "discount",
    "location": {
      "lat": 59.963296,
      "lng": 10.892321
    },
    "address": "",
    "city": "",
    "postcode": "",
    "openingHours": "Mo-Sa 07:00-23:00",
    "wheelchair": "",
    "phone": "+47 22106727",
    "website": "",
    "organic": ""
  },
  {
    "id": "rema-356303843",
    "osmId": 356303843,
    "name": "Rema 1000 Dikeveien",
    "chain": "Rema 1000",
    "chainId": "rema",
    "storeType": "discount",
    "location": {
      "lat": 59.2515,
      "lng": 10.996471
    },
    "address": "",
    "city": "",
    "postcode": "",
    "openingHours": "Mo-Sa 07:00-23:00",
    "wheelchair": "",
    "phone": "+47 69364730",
    "website": "",
    "organic": ""
  },
  {
    "id": "extra-356370654",
    "osmId": 356370654,
    "name": "Extra Hovden",
    "chain": "Extra",
    "chainId": "extra",
    "storeType": "discount",
    "location": {
      "lat": 59.559504,
      "lng": 7.356162
    },
    "address": "",
    "city": "",
    "postcode": "",
    "openingHours": "Mo-Fr 08:00-22:00, Sa 08:00-21:00, Su 10:00-18:00",
    "wheelchair": "",
    "phone": "",
    "website": "",
    "organic": ""
  },
  {
    "id": "kiwi-356370667",
    "osmId": 356370667,
    "name": "Kiwi Hovden",
    "chain": "Kiwi",
    "chainId": "kiwi",
    "storeType": "discount",
    "location": {
      "lat": 59.559714,
      "lng": 7.357667
    },
    "address": "",
    "city": "",
    "postcode": "",
    "openingHours": "Mo-Fr 08:00-22:00, Sa 08:00-21:00, Su 10:00-18:00",
    "wheelchair": "",
    "phone": "+47 37939856",
    "website": "",
    "organic": ""
  },
  {
    "id": "kiwi-356764440",
    "osmId": 356764440,
    "name": "Kiwi Oasen",
    "chain": "Kiwi",
    "chainId": "kiwi",
    "storeType": "discount",
    "location": {
      "lat": 60.348341,
      "lng": 5.292608
    },
    "address": "",
    "city": "",
    "postcode": "",
    "openingHours": "Mo-Sa 07:00-23:00",
    "wheelchair": "yes",
    "phone": "+47 55161260",
    "website": "https://kiwi.no/Finn-butikk/Kiwi-Oasen/",
    "organic": ""
  },
  {
    "id": "kiwi-358363208",
    "osmId": 358363208,
    "name": "Kiwi Bjølsen",
    "chain": "Kiwi",
    "chainId": "kiwi",
    "storeType": "discount",
    "location": {
      "lat": 59.944248,
      "lng": 10.759468
    },
    "address": "",
    "city": "",
    "postcode": "",
    "openingHours": "Mo-Sa 07:00-23:00",
    "wheelchair": "limited",
    "phone": "+47 22181531",
    "website": "",
    "organic": ""
  },
  {
    "id": "coop-prix-358411391",
    "osmId": 358411391,
    "name": "Coop Prix Etterstad",
    "chain": "Coop Prix",
    "chainId": "coop-prix",
    "storeType": "discount",
    "location": {
      "lat": 59.909661,
      "lng": 10.795108
    },
    "address": "",
    "city": "",
    "postcode": "",
    "openingHours": "Mo-Fr 07:00-23:00, Sa 09:00-21:00",
    "wheelchair": "",
    "phone": "",
    "website": "",
    "organic": ""
  },
  {
    "id": "coop-mega-359891653",
    "osmId": 359891653,
    "name": "Coop Mega Oppdal",
    "chain": "Coop Mega",
    "chainId": "coop-mega",
    "storeType": "supermarket",
    "location": {
      "lat": 62.595044,
      "lng": 9.691756
    },
    "address": "",
    "city": "",
    "postcode": "",
    "openingHours": "Mo-Fr 07:00-22:00, Sa 07:00-20:00, Su 10:00-20:00",
    "wheelchair": "yes",
    "phone": "",
    "website": "",
    "organic": ""
  },
  {
    "id": "bunnpris-359891663",
    "osmId": 359891663,
    "name": "Bunnpris Oppdal",
    "chain": "Bunnpris",
    "chainId": "bunnpris",
    "storeType": "discount",
    "location": {
      "lat": 62.594855,
      "lng": 9.693203
    },
    "address": "",
    "city": "",
    "postcode": "",
    "openingHours": "Mo-Fr 08:00-22:00, Sa 09:00-22:00, Su 11:00-21:00",
    "wheelchair": "yes",
    "phone": "+47 72421320",
    "website": "",
    "organic": ""
  },
  {
    "id": "kiwi-359965858",
    "osmId": 359965858,
    "name": "Kiwi Rjukan sentrum",
    "chain": "Kiwi",
    "chainId": "kiwi",
    "storeType": "discount",
    "location": {
      "lat": 59.878508,
      "lng": 8.587976
    },
    "address": "",
    "city": "",
    "postcode": "",
    "openingHours": "Mo-Fr 07:00-23:00, Sa 08:00-21:00, Su 10:00-18:00",
    "wheelchair": "",
    "phone": "+47 35090480",
    "website": "",
    "organic": ""
  },
  {
    "id": "rema-364548431",
    "osmId": 364548431,
    "name": "Rema 1000 Gystadparken",
    "chain": "Rema 1000",
    "chainId": "rema",
    "storeType": "discount",
    "location": {
      "lat": 60.143413,
      "lng": 11.19107
    },
    "address": "",
    "city": "",
    "postcode": "",
    "openingHours": "Mo-Sa 07:00-23:00",
    "wheelchair": "",
    "phone": "+47 67024680",
    "website": "",
    "organic": ""
  },
  {
    "id": "kiwi-364962916",
    "osmId": 364962916,
    "name": "Kiwi Aurdal",
    "chain": "Kiwi",
    "chainId": "kiwi",
    "storeType": "discount",
    "location": {
      "lat": 60.9195678,
      "lng": 9.4226092
    },
    "address": "",
    "city": "",
    "postcode": "",
    "openingHours": "Mo-Fr 08:00-23:00, Sa 08:00-21:00, Su 10:00-21:00",
    "wheelchair": "yes",
    "phone": "+47 61365109",
    "website": "",
    "organic": ""
  },
  {
    "id": "extra-365152689",
    "osmId": 365152689,
    "name": "Extra Haugerud senter",
    "chain": "Extra",
    "chainId": "extra",
    "storeType": "discount",
    "location": {
      "lat": 59.922475,
      "lng": 10.856642
    },
    "address": "",
    "city": "",
    "postcode": "",
    "openingHours": "Mo-Sa 07:00-23:00",
    "wheelchair": "",
    "phone": "",
    "website": "",
    "organic": ""
  },
  {
    "id": "rema-365154970",
    "osmId": 365154970,
    "name": "Rema 1000 Hellerud",
    "chain": "Rema 1000",
    "chainId": "rema",
    "storeType": "discount",
    "location": {
      "lat": 59.916476,
      "lng": 10.848495
    },
    "address": "",
    "city": "",
    "postcode": "",
    "openingHours": "Mo-Sa 07:00-23:00",
    "wheelchair": "",
    "phone": "+47 22755700",
    "website": "",
    "organic": ""
  },
  {
    "id": "rema-365558109",
    "osmId": 365558109,
    "name": "Rema 1000 Borgheim",
    "chain": "Rema 1000",
    "chainId": "rema",
    "storeType": "discount",
    "location": {
      "lat": 59.225832,
      "lng": 10.408142
    },
    "address": "",
    "city": "",
    "postcode": "",
    "openingHours": "Mo-Fr 06:00-23:00, Sa 07:00-23:00",
    "wheelchair": "yes",
    "phone": "+47 99573000",
    "website": "https://butikk.rema.no/REMA+1000+Borgheim/234093",
    "organic": ""
  },
  {
    "id": "joker-366611331",
    "osmId": 366611331,
    "name": "Joker Skeikampen",
    "chain": "Joker",
    "chainId": "joker",
    "storeType": "convenience",
    "location": {
      "lat": 61.328756,
      "lng": 10.1047362
    },
    "address": "",
    "city": "",
    "postcode": "",
    "openingHours": "Mo-We 09:00-18:00, Th-Fr 09:00-21:00, Sa 09:00-18:00, Su 10:00-18:00",
    "wheelchair": "",
    "phone": "+47 91589332",
    "website": "",
    "organic": ""
  },
  {
    "id": "obs-367854288",
    "osmId": 367854288,
    "name": "Obs Jessheim",
    "chain": "Obs",
    "chainId": "obs",
    "storeType": "hypermarket",
    "location": {
      "lat": 60.143355,
      "lng": 11.164884
    },
    "address": "",
    "city": "",
    "postcode": "",
    "openingHours": "Mo-Fr 08:00-22:00, Sa 08:00-20:00",
    "wheelchair": "",
    "phone": "",
    "website": "",
    "organic": ""
  },
  {
    "id": "meny-367856955",
    "osmId": 367856955,
    "name": "Meny Jessheim",
    "chain": "Meny",
    "chainId": "meny",
    "storeType": "supermarket",
    "location": {
      "lat": 60.1430605,
      "lng": 11.1722879
    },
    "address": "",
    "city": "",
    "postcode": "",
    "openingHours": "Mo-Fr 09:00-21:00, Sa 09:00-19:00",
    "wheelchair": "",
    "phone": "+47 63986920",
    "website": "",
    "organic": ""
  },
  {
    "id": "kiwi-371883790",
    "osmId": 371883790,
    "name": "Kiwi Eiganes",
    "chain": "Kiwi",
    "chainId": "kiwi",
    "storeType": "discount",
    "location": {
      "lat": 58.9575945,
      "lng": 5.6987439
    },
    "address": "",
    "city": "",
    "postcode": "",
    "openingHours": "Mo-Sa 07:00-23:00",
    "wheelchair": "",
    "phone": "+47 51550251",
    "website": "",
    "organic": ""
  },
  {
    "id": "coop-prix-373122853",
    "osmId": 373122853,
    "name": "Coop Prix Misjonsveien",
    "chain": "Coop Prix",
    "chainId": "coop-prix",
    "storeType": "discount",
    "location": {
      "lat": 58.969928,
      "lng": 5.716087
    },
    "address": "",
    "city": "",
    "postcode": "",
    "openingHours": "Mo-Fr 07:00-22:00, Sa-Su 09:00-21:00",
    "wheelchair": "",
    "phone": "",
    "website": "",
    "organic": ""
  },
  {
    "id": "rema-373669398",
    "osmId": 373669398,
    "name": "Rema 1000 Byterminalen",
    "chain": "Rema 1000",
    "chainId": "rema",
    "storeType": "discount",
    "location": {
      "lat": 58.966684,
      "lng": 5.733824
    },
    "address": "",
    "city": "",
    "postcode": "",
    "openingHours": "Mo-Fr 07:00-23:00, Sa 07:00-21:00",
    "wheelchair": "yes",
    "phone": "+47 51567601",
    "website": "",
    "organic": ""
  },
  {
    "id": "coop-prix-375676275",
    "osmId": 375676275,
    "name": "Coop Prix Malm",
    "chain": "Coop Prix",
    "chainId": "coop-prix",
    "storeType": "discount",
    "location": {
      "lat": 64.07533,
      "lng": 11.222733
    },
    "address": "",
    "city": "",
    "postcode": "",
    "openingHours": "Mo-Fr 08:00-22:00, Sa 08:00-21:00",
    "wheelchair": "",
    "phone": "",
    "website": "",
    "organic": ""
  },
  {
    "id": "joker-376043767",
    "osmId": 376043767,
    "name": "Joker Tananger",
    "chain": "Joker",
    "chainId": "joker",
    "storeType": "convenience",
    "location": {
      "lat": 58.928222,
      "lng": 5.60816
    },
    "address": "",
    "city": "",
    "postcode": "",
    "openingHours": "Mo-Fr 07:00-22:00, Sa 08:00-22:00, Su 09:00-22:00",
    "wheelchair": "",
    "phone": "+47 51 69 77 00",
    "website": "",
    "organic": ""
  },
  {
    "id": "bunnpris-382917154",
    "osmId": 382917154,
    "name": "Bunnpris Munkegaten",
    "chain": "Bunnpris",
    "chainId": "bunnpris",
    "storeType": "discount",
    "location": {
      "lat": 63.43211,
      "lng": 10.393687
    },
    "address": "",
    "city": "",
    "postcode": "",
    "openingHours": "Mo-Fr 07:00-23:00; Sa 09:00-21:00; PH off; easter -4 days 20:00+ off; easter -1 day 16:00+ off; easter +48 days 16:00+ off; Dec 27-29 10:00-21:00; Dec 31 09:00-16:00",
    "wheelchair": "yes",
    "phone": "+47 73521700",
    "website": "https://www.bunnpris.no/butikker/bunnpris-munkegaten",
    "organic": ""
  },
  {
    "id": "kiwi-383999730",
    "osmId": 383999730,
    "name": "Kiwi Fredensborg",
    "chain": "Kiwi",
    "chainId": "kiwi",
    "storeType": "discount",
    "location": {
      "lat": 59.9190318,
      "lng": 10.7515978
    },
    "address": "",
    "city": "",
    "postcode": "",
    "openingHours": "Mo-Sa 07:00-23:00",
    "wheelchair": "yes",
    "phone": "+47 22360137",
    "website": "",
    "organic": ""
  },
  {
    "id": "kiwi-384003082",
    "osmId": 384003082,
    "name": "Kiwi Ullevål",
    "chain": "Kiwi",
    "chainId": "kiwi",
    "storeType": "discount",
    "location": {
      "lat": 59.937675,
      "lng": 10.734922
    },
    "address": "",
    "city": "",
    "postcode": "",
    "openingHours": "Mo-Fr 07:00-23:00, Sa 09:00-21:00",
    "wheelchair": "",
    "phone": "+47 22466111",
    "website": "",
    "organic": ""
  },
  {
    "id": "kiwi-385145894",
    "osmId": 385145894,
    "name": "Kiwi Gystad",
    "chain": "Kiwi",
    "chainId": "kiwi",
    "storeType": "discount",
    "location": {
      "lat": 60.140008,
      "lng": 11.186862
    },
    "address": "",
    "city": "",
    "postcode": "",
    "openingHours": "Mo-Sa 07:00-23:00",
    "wheelchair": "",
    "phone": "+47 63975900",
    "website": "",
    "organic": ""
  },
  {
    "id": "bunnpris-387530378",
    "osmId": 387530378,
    "name": "Bunnpris Rosenborg",
    "chain": "Bunnpris",
    "chainId": "bunnpris",
    "storeType": "discount",
    "location": {
      "lat": 63.432379,
      "lng": 10.41731
    },
    "address": "",
    "city": "",
    "postcode": "",
    "openingHours": "Mo-Sa 09:00-21:00",
    "wheelchair": "yes",
    "phone": "+47 47769274",
    "website": "",
    "organic": ""
  },
  {
    "id": "obs-387620716",
    "osmId": 387620716,
    "name": "Obs Sartor",
    "chain": "Obs",
    "chainId": "obs",
    "storeType": "hypermarket",
    "location": {
      "lat": 60.3597204,
      "lng": 5.12424
    },
    "address": "",
    "city": "",
    "postcode": "",
    "openingHours": "Mo-Fr 09:00-22:00, Sa 09:00-20:00",
    "wheelchair": "yes",
    "phone": "",
    "website": "",
    "organic": ""
  },
  {
    "id": "obs-387620717",
    "osmId": 387620717,
    "name": "Obs Haugesund",
    "chain": "Obs",
    "chainId": "obs",
    "storeType": "hypermarket",
    "location": {
      "lat": 59.39518,
      "lng": 5.333243
    },
    "address": "",
    "city": "",
    "postcode": "",
    "openingHours": "Mo-Fr 09:00-21:00, Sa 09:00-19:00",
    "wheelchair": "yes",
    "phone": "",
    "website": "",
    "organic": ""
  },
  {
    "id": "obs-387620718",
    "osmId": 387620718,
    "name": "Coop Obs Lagunen",
    "chain": "Obs",
    "chainId": "obs",
    "storeType": "hypermarket",
    "location": {
      "lat": 60.29701,
      "lng": 5.33081
    },
    "address": "",
    "city": "",
    "postcode": "",
    "openingHours": "Mo-Fr 09:00-22:00, Sa 09:00-20:00",
    "wheelchair": "yes",
    "phone": "",
    "website": "",
    "organic": "yes"
  },
  {
    "id": "obs-387620721",
    "osmId": 387620721,
    "name": "Obs Bryne",
    "chain": "Obs",
    "chainId": "obs",
    "storeType": "hypermarket",
    "location": {
      "lat": 58.735744,
      "lng": 5.639717
    },
    "address": "",
    "city": "",
    "postcode": "",
    "openingHours": "Mo-Fr 08:00-22:00, Sa 08:00-20:00",
    "wheelchair": "",
    "phone": "",
    "website": "",
    "organic": ""
  },
  {
    "id": "obs-387620723",
    "osmId": 387620723,
    "name": "Obs Kvadrat",
    "chain": "Obs",
    "chainId": "obs",
    "storeType": "hypermarket",
    "location": {
      "lat": 58.876408,
      "lng": 5.72305
    },
    "address": "",
    "city": "",
    "postcode": "",
    "openingHours": "Mo-Fr 09:00-21:00; Sa 09:00-19:00; Su,PH off",
    "wheelchair": "yes",
    "phone": "",
    "website": "",
    "organic": ""
  },
  {
    "id": "obs-387620725",
    "osmId": 387620725,
    "name": "Obs Stormoa",
    "chain": "Obs",
    "chainId": "obs",
    "storeType": "hypermarket",
    "location": {
      "lat": 62.4669582,
      "lng": 6.3505351
    },
    "address": "",
    "city": "",
    "postcode": "",
    "openingHours": "Mo-Fr 08:00-22:00, Sa 08:00-20:00",
    "wheelchair": "yes",
    "phone": "",
    "website": "",
    "organic": ""
  },
  {
    "id": "obs-387620726",
    "osmId": 387620726,
    "name": "Coop Obs Sørlandssenteret",
    "chain": "Obs",
    "chainId": "obs",
    "storeType": "hypermarket",
    "location": {
      "lat": 58.1770595,
      "lng": 8.1269514
    },
    "address": "",
    "city": "",
    "postcode": "",
    "openingHours": "",
    "wheelchair": "yes",
    "phone": "",
    "website": "",
    "organic": ""
  },
  {
    "id": "obs-387620727",
    "osmId": 387620727,
    "name": "Obs Arendal",
    "chain": "Obs",
    "chainId": "obs",
    "storeType": "hypermarket",
    "location": {
      "lat": 58.464225,
      "lng": 8.708721
    },
    "address": "",
    "city": "",
    "postcode": "",
    "openingHours": "Mo-Fr 09:00-22:00, Sa 09:00-20:00",
    "wheelchair": "yes",
    "phone": "",
    "website": "",
    "organic": ""
  },
  {
    "id": "obs-387620728",
    "osmId": 387620728,
    "name": "Obs Buskerud",
    "chain": "Obs",
    "chainId": "obs",
    "storeType": "hypermarket",
    "location": {
      "lat": 59.756222,
      "lng": 10.000785
    },